{
"type": "FeatureCollection",
                                                                                
"features": [
{ "type": "Feature", "properties": { "region": 1, "pays": "BOTSWANA", "id_wmo": "68226", "id_subnbr": "0", "nom": "TSHANE", "surface": "S", "radiosonde": null, "radiowind": null, "latitude": -24.0167, "longitude": 21.8833, "hp": 1100.0, "hha": 1118.0 }, "geometry": { "type": "Point", "coordinates": [ 21.8833, -24.0167 ] } }
,
{ "type": "Feature", "properties": { "region": 1, "pays": "EGYPTE", "id_wmo": "62318", "id_subnbr": "0", "nom": "NOUZHA", "surface": "S", "radiosonde": null, "radiowind": null, "latitude": 31.1817, "longitude": 29.9464, "hp": 7.0, "hha": null }, "geometry": { "type": "Point", "coordinates": [ 29.9464, 31.1817 ] } }
,
{ "type": "Feature", "properties": { "region": 1, "pays": "AFRIQUE DU SUD", "id_wmo": "68263", "id_subnbr": "0", "nom": "PRETORIA (IRENE)", "surface": null, "radiosonde": "R", "radiowind": null, "latitude": -25.91, "longitude": 28.2111, "hp": 1526.0, "hha": 1526.0 }, "geometry": { "type": "Point", "coordinates": [ 28.2111, -25.91 ] } }
,
{ "type": "Feature", "properties": { "region": 1, "pays": "SOUDAN", "id_wmo": "62600", "id_subnbr": "0", "nom": "WADI HALFA", "surface": "S", "radiosonde": null, "radiowind": null, "latitude": 21.8167, "longitude": 31.35, "hp": 190.0, "hha": 183.0 }, "geometry": { "type": "Point", "coordinates": [ 31.35, 21.8167 ] } }
,
{ "type": "Feature", "properties": { "region": 3, "pays": "BRESIL", "id_wmo": "83726", "id_subnbr": "0", "nom": "SAO CARLOS", "surface": "S", "radiosonde": null, "radiowind": null, "latitude": -22.0167, "longitude": -47.8833, "hp": 856.0, "hha": 856.0 }, "geometry": { "type": "Point", "coordinates": [ -47.8833, -22.0167 ] } }
,
{ "type": "Feature", "properties": { "region": 1, "pays": "ALGERIE", "id_wmo": "60390", "id_subnbr": "0", "nom": "DAR-EL-BEIDA", "surface": "S", "radiosonde": "R", "radiowind": "W", "latitude": 36.6833, "longitude": 3.21667, "hp": 29.0, "hha": 25.0 }, "geometry": { "type": "Point", "coordinates": [ 3.21667, 36.6833 ] } }
,
{ "type": "Feature", "properties": { "region": 1, "pays": "ALGERIE", "id_wmo": "60395", "id_subnbr": "0", "nom": "TIZI-OUZOU", "surface": "S", "radiosonde": null, "radiowind": null, "latitude": 36.7, "longitude": 4.05, "hp": 189.0, "hha": 188.0 }, "geometry": { "type": "Point", "coordinates": [ 4.05, 36.7 ] } }
,
{ "type": "Feature", "properties": { "region": 1, "pays": "ALGERIE", "id_wmo": "60402", "id_subnbr": "0", "nom": "BEJAIA-AEROPORT", "surface": "S", "radiosonde": null, "radiowind": null, "latitude": 36.7167, "longitude": 5.06667, "hp": 3.0, "hha": 2.0 }, "geometry": { "type": "Point", "coordinates": [ 5.06667, 36.7167 ] } }
,
{ "type": "Feature", "properties": { "region": 1, "pays": "ALGERIE", "id_wmo": "60419", "id_subnbr": "0", "nom": "CONSTANTINE", "surface": "S", "radiosonde": null, "radiowind": null, "latitude": 36.2833, "longitude": 6.61667, "hp": 694.0, "hha": 693.0 }, "geometry": { "type": "Point", "coordinates": [ 6.61667, 36.2833 ] } }
,
{ "type": "Feature", "properties": { "region": 1, "pays": "ALGERIE", "id_wmo": "60421", "id_subnbr": "0", "nom": "OUM EL BOUAGHI", "surface": "S", "radiosonde": null, "radiowind": null, "latitude": 35.8667, "longitude": 7.11667, "hp": 891.0, "hha": 889.0 }, "geometry": { "type": "Point", "coordinates": [ 7.11667, 35.8667 ] } }
,
{ "type": "Feature", "properties": { "region": 1, "pays": "ALGERIE", "id_wmo": "60423", "id_subnbr": "0", "nom": "SOUK AHRAS", "surface": "S", "radiosonde": null, "radiowind": null, "latitude": 36.2833, "longitude": 7.96667, "hp": 680.0, "hha": null }, "geometry": { "type": "Point", "coordinates": [ 7.96667, 36.2833 ] } }
,
{ "type": "Feature", "properties": { "region": 1, "pays": "ALGERIE", "id_wmo": "60425", "id_subnbr": "0", "nom": "CHLEF", "surface": "S", "radiosonde": null, "radiowind": null, "latitude": 36.2167, "longitude": 1.33333, "hp": 144.0, "hha": 143.0 }, "geometry": { "type": "Point", "coordinates": [ 1.33333, 36.2167 ] } }
,
{ "type": "Feature", "properties": { "region": 1, "pays": "ALGERIE", "id_wmo": "60430", "id_subnbr": "0", "nom": "MILIANA", "surface": "S", "radiosonde": null, "radiowind": null, "latitude": 36.3, "longitude": 2.23333, "hp": 721.0, "hha": 715.0 }, "geometry": { "type": "Point", "coordinates": [ 2.23333, 36.3 ] } }
,
{ "type": "Feature", "properties": { "region": 1, "pays": "ALGERIE", "id_wmo": "60437", "id_subnbr": "0", "nom": "MEDEA", "surface": "S", "radiosonde": null, "radiowind": null, "latitude": 36.2833, "longitude": 2.73333, "hp": 1036.0, "hha": 1030.0 }, "geometry": { "type": "Point", "coordinates": [ 2.73333, 36.2833 ] } }
,
{ "type": "Feature", "properties": { "region": 1, "pays": "ALGERIE", "id_wmo": "60444", "id_subnbr": "0", "nom": "BORDJ-BOU-ARRERIDJ", "surface": "S", "radiosonde": null, "radiowind": null, "latitude": 36.0667, "longitude": 4.76667, "hp": 930.0, "hha": 928.0 }, "geometry": { "type": "Point", "coordinates": [ 4.76667, 36.0667 ] } }
,
{ "type": "Feature", "properties": { "region": 1, "pays": "ALGERIE", "id_wmo": "60445", "id_subnbr": "0", "nom": "SETIF", "surface": "S", "radiosonde": null, "radiowind": null, "latitude": 36.1833, "longitude": 5.25, "hp": 1040.0, "hha": 1033.0 }, "geometry": { "type": "Point", "coordinates": [ 5.25, 36.1833 ] } }
,
{ "type": "Feature", "properties": { "region": 1, "pays": "ALGERIE", "id_wmo": "60457", "id_subnbr": "0", "nom": "MOSTAGANEM", "surface": "S", "radiosonde": null, "radiowind": null, "latitude": 35.8833, "longitude": 0.116667, "hp": 138.0, "hha": 137.0 }, "geometry": { "type": "Point", "coordinates": [ 0.116667, 35.8833 ] } }
,
{ "type": "Feature", "properties": { "region": 1, "pays": "ALGERIE", "id_wmo": "60468", "id_subnbr": "0", "nom": "BATNA", "surface": "S", "radiosonde": null, "radiowind": null, "latitude": 35.75, "longitude": 6.31667, "hp": 826.0, "hha": 822.0 }, "geometry": { "type": "Point", "coordinates": [ 6.31667, 35.75 ] } }
,
{ "type": "Feature", "properties": { "region": 1, "pays": "ALGERIE", "id_wmo": "60475", "id_subnbr": "0", "nom": "TEBESSA", "surface": "S", "radiosonde": null, "radiowind": null, "latitude": 35.4167, "longitude": 8.11667, "hp": 823.0, "hha": 821.0 }, "geometry": { "type": "Point", "coordinates": [ 8.11667, 35.4167 ] } }
,
{ "type": "Feature", "properties": { "region": 1, "pays": "ALGERIE", "id_wmo": "60490", "id_subnbr": "0", "nom": "ORAN-SENIA", "surface": "S", "radiosonde": null, "radiowind": null, "latitude": 35.6333, "longitude": -0.6, "hp": 91.0, "hha": 90.0 }, "geometry": { "type": "Point", "coordinates": [ -0.6, 35.6333 ] } }
,
{ "type": "Feature", "properties": { "region": 1, "pays": "ALGERIE", "id_wmo": "60507", "id_subnbr": "0", "nom": "MASCARA-GHRISS", "surface": "S", "radiosonde": null, "radiowind": null, "latitude": 35.2167, "longitude": 0.15, "hp": 513.0, "hha": 511.0 }, "geometry": { "type": "Point", "coordinates": [ 0.15, 35.2167 ] } }
,
{ "type": "Feature", "properties": { "region": 1, "pays": "ALGERIE", "id_wmo": "60511", "id_subnbr": "0", "nom": "TIARET", "surface": "S", "radiosonde": null, "radiowind": null, "latitude": 35.35, "longitude": 1.46667, "hp": 978.0, "hha": 977.0 }, "geometry": { "type": "Point", "coordinates": [ 1.46667, 35.35 ] } }
,
{ "type": "Feature", "properties": { "region": 1, "pays": "ALGERIE", "id_wmo": "60518", "id_subnbr": "0", "nom": "BENI-SAF", "surface": "S", "radiosonde": null, "radiowind": null, "latitude": 35.3, "longitude": -1.35, "hp": 70.0, "hha": 68.0 }, "geometry": { "type": "Point", "coordinates": [ -1.35, 35.3 ] } }
,
{ "type": "Feature", "properties": { "region": 1, "pays": "ALGERIE", "id_wmo": "60520", "id_subnbr": "0", "nom": "SIDI-BEL-ABBES", "surface": "S", "radiosonde": null, "radiowind": null, "latitude": 35.2, "longitude": -0.616667, "hp": 476.0, "hha": 475.0 }, "geometry": { "type": "Point", "coordinates": [ -0.616667, 35.2 ] } }
,
{ "type": "Feature", "properties": { "region": 1, "pays": "ALGERIE", "id_wmo": "60525", "id_subnbr": "0", "nom": "BISKRA", "surface": "S", "radiosonde": null, "radiowind": null, "latitude": 34.8, "longitude": 5.73333, "hp": 89.0, "hha": 82.0 }, "geometry": { "type": "Point", "coordinates": [ 5.73333, 34.8 ] } }
,
{ "type": "Feature", "properties": { "region": 1, "pays": "ALGERIE", "id_wmo": "60531", "id_subnbr": "0", "nom": "TLEMCEN-ZENATA", "surface": "S", "radiosonde": null, "radiowind": null, "latitude": 35.0167, "longitude": -1.46667, "hp": 247.0, "hha": 246.0 }, "geometry": { "type": "Point", "coordinates": [ -1.46667, 35.0167 ] } }
,
{ "type": "Feature", "properties": { "region": 1, "pays": "ALGERIE", "id_wmo": "60535", "id_subnbr": "0", "nom": "DJELFA", "surface": "S", "radiosonde": null, "radiowind": null, "latitude": 34.6833, "longitude": 3.25, "hp": 1185.0, "hha": 1180.0 }, "geometry": { "type": "Point", "coordinates": [ 3.25, 34.6833 ] } }
,
{ "type": "Feature", "properties": { "region": 1, "pays": "ALGERIE", "id_wmo": "60536", "id_subnbr": "0", "nom": "SAIDA", "surface": "S", "radiosonde": null, "radiowind": null, "latitude": 34.8667, "longitude": 0.15, "hp": 752.0, "hha": 750.0 }, "geometry": { "type": "Point", "coordinates": [ 0.15, 34.8667 ] } }
,
{ "type": "Feature", "properties": { "region": 1, "pays": "ALGERIE", "id_wmo": "60540", "id_subnbr": "0", "nom": "EL-KHEITER", "surface": "S", "radiosonde": null, "radiowind": null, "latitude": 34.15, "longitude": 0.0666667, "hp": 1001.0, "hha": 1000.0 }, "geometry": { "type": "Point", "coordinates": [ 0.0666667, 34.15 ] } }
,
{ "type": "Feature", "properties": { "region": 1, "pays": "ALGERIE", "id_wmo": "60549", "id_subnbr": "0", "nom": "MECHERIA", "surface": "S", "radiosonde": null, "radiowind": null, "latitude": 33.5833, "longitude": -0.283333, "hp": 1150.0, "hha": 1149.0 }, "geometry": { "type": "Point", "coordinates": [ -0.283333, 33.5833 ] } }
,
{ "type": "Feature", "properties": { "region": 1, "pays": "ALGERIE", "id_wmo": "60550", "id_subnbr": "0", "nom": "EL-BAYADH", "surface": "S", "radiosonde": null, "radiowind": null, "latitude": 33.6667, "longitude": 1.0, "hp": 1347.0, "hha": 1341.0 }, "geometry": { "type": "Point", "coordinates": [ 1.0, 33.6667 ] } }
,
{ "type": "Feature", "properties": { "region": 1, "pays": "ALGERIE", "id_wmo": "60555", "id_subnbr": "0", "nom": "TOUGGOURT", "surface": "S", "radiosonde": null, "radiowind": null, "latitude": 33.1167, "longitude": 6.13333, "hp": 92.0, "hha": 87.0 }, "geometry": { "type": "Point", "coordinates": [ 6.13333, 33.1167 ] } }
,
{ "type": "Feature", "properties": { "region": 1, "pays": "ALGERIE", "id_wmo": "60559", "id_subnbr": "0", "nom": "EL-OUED", "surface": "S", "radiosonde": null, "radiowind": null, "latitude": 33.5, "longitude": 6.78333, "hp": 69.0, "hha": 64.0 }, "geometry": { "type": "Point", "coordinates": [ 6.78333, 33.5 ] } }
,
{ "type": "Feature", "properties": { "region": 1, "pays": "ALGERIE", "id_wmo": "60560", "id_subnbr": "0", "nom": "AIN-SEFRA", "surface": "S", "radiosonde": null, "radiowind": null, "latitude": 32.7667, "longitude": -0.6, "hp": 1059.0, "hha": 1058.0 }, "geometry": { "type": "Point", "coordinates": [ -0.6, 32.7667 ] } }
,
{ "type": "Feature", "properties": { "region": 1, "pays": "ALGERIE", "id_wmo": "60566", "id_subnbr": "0", "nom": "GHARDAIA", "surface": "S", "radiosonde": null, "radiowind": null, "latitude": 32.4, "longitude": 3.8, "hp": 469.0, "hha": 468.0 }, "geometry": { "type": "Point", "coordinates": [ 3.8, 32.4 ] } }
,
{ "type": "Feature", "properties": { "region": 1, "pays": "ALGERIE", "id_wmo": "60571", "id_subnbr": "0", "nom": "BECHAR", "surface": "S", "radiosonde": "R", "radiowind": "W", "latitude": 31.5, "longitude": -2.25, "hp": 816.0, "hha": 809.0 }, "geometry": { "type": "Point", "coordinates": [ -2.25, 31.5 ] } }
,
{ "type": "Feature", "properties": { "region": 1, "pays": "ALGERIE", "id_wmo": "60580", "id_subnbr": "0", "nom": "OUARGLA", "surface": "S", "radiosonde": null, "radiowind": null, "latitude": 31.9333, "longitude": 5.4, "hp": 148.0, "hha": 144.0 }, "geometry": { "type": "Point", "coordinates": [ 5.4, 31.9333 ] } }
,
{ "type": "Feature", "properties": { "region": 1, "pays": "ALGERIE", "id_wmo": "60581", "id_subnbr": "0", "nom": "HASSI-MESSAOUD", "surface": "S", "radiosonde": null, "radiowind": null, "latitude": 31.6667, "longitude": 6.15, "hp": 144.0, "hha": 142.0 }, "geometry": { "type": "Point", "coordinates": [ 6.15, 31.6667 ] } }
,
{ "type": "Feature", "properties": { "region": 1, "pays": "ALGERIE", "id_wmo": "60590", "id_subnbr": "0", "nom": "EL-GOLEA", "surface": "S", "radiosonde": null, "radiowind": null, "latitude": 30.5667, "longitude": 2.86667, "hp": 403.0, "hha": 397.0 }, "geometry": { "type": "Point", "coordinates": [ 2.86667, 30.5667 ] } }
,
{ "type": "Feature", "properties": { "region": 1, "pays": "ALGERIE", "id_wmo": "60602", "id_subnbr": "0", "nom": "BENI-ABBES", "surface": "S", "radiosonde": null, "radiowind": null, "latitude": 30.1333, "longitude": -2.16667, "hp": 505.0, "hha": 500.0 }, "geometry": { "type": "Point", "coordinates": [ -2.16667, 30.1333 ] } }
,
{ "type": "Feature", "properties": { "region": 1, "pays": "ALGERIE", "id_wmo": "60607", "id_subnbr": "0", "nom": "TIMIMOUN", "surface": "S", "radiosonde": null, "radiowind": null, "latitude": 29.25, "longitude": 0.283333, "hp": 317.0, "hha": 312.0 }, "geometry": { "type": "Point", "coordinates": [ 0.283333, 29.25 ] } }
,
{ "type": "Feature", "properties": { "region": 1, "pays": "ALGERIE", "id_wmo": "60611", "id_subnbr": "0", "nom": "IN-AMENAS", "surface": "S", "radiosonde": null, "radiowind": null, "latitude": 28.05, "longitude": 9.63333, "hp": 562.0, "hha": 561.0 }, "geometry": { "type": "Point", "coordinates": [ 9.63333, 28.05 ] } }
,
{ "type": "Feature", "properties": { "region": 1, "pays": "ALGERIE", "id_wmo": "60620", "id_subnbr": "0", "nom": "ADRAR", "surface": "S", "radiosonde": null, "radiowind": null, "latitude": 27.8833, "longitude": -0.183333, "hp": 283.0, "hha": 279.0 }, "geometry": { "type": "Point", "coordinates": [ -0.183333, 27.8833 ] } }
,
{ "type": "Feature", "properties": { "region": 1, "pays": "ALGERIE", "id_wmo": "60630", "id_subnbr": "0", "nom": "IN-SALAH", "surface": "S", "radiosonde": "R", "radiowind": "W", "latitude": 27.2333, "longitude": 2.5, "hp": 269.0, "hha": 268.0 }, "geometry": { "type": "Point", "coordinates": [ 2.5, 27.2333 ] } }
,
{ "type": "Feature", "properties": { "region": 1, "pays": "ALGERIE", "id_wmo": "60640", "id_subnbr": "0", "nom": "ILLIZI", "surface": "S", "radiosonde": null, "radiowind": null, "latitude": 26.5, "longitude": 8.41667, "hp": 544.0, "hha": 543.0 }, "geometry": { "type": "Point", "coordinates": [ 8.41667, 26.5 ] } }
,
{ "type": "Feature", "properties": { "region": 1, "pays": "ALGERIE", "id_wmo": "60656", "id_subnbr": "0", "nom": "TINDOUF", "surface": "S", "radiosonde": "R", "radiowind": "W", "latitude": 27.7, "longitude": -8.16667, "hp": 439.0, "hha": 443.0 }, "geometry": { "type": "Point", "coordinates": [ -8.16667, 27.7 ] } }
,
{ "type": "Feature", "properties": { "region": 1, "pays": "ALGERIE", "id_wmo": "60670", "id_subnbr": "0", "nom": "DJANET", "surface": "S", "radiosonde": null, "radiowind": null, "latitude": 24.2667, "longitude": 9.46667, "hp": 970.0, "hha": 968.0 }, "geometry": { "type": "Point", "coordinates": [ 9.46667, 24.2667 ] } }
,
{ "type": "Feature", "properties": { "region": 1, "pays": "ALGERIE", "id_wmo": "60680", "id_subnbr": "0", "nom": "TAMANRASSET", "surface": "S", "radiosonde": "R", "radiowind": "W", "latitude": 22.8, "longitude": 5.43333, "hp": 1364.0, "hha": 1362.0 }, "geometry": { "type": "Point", "coordinates": [ 5.43333, 22.8 ] } }
,
{ "type": "Feature", "properties": { "region": 1, "pays": "ALGERIE", "id_wmo": "60686", "id_subnbr": "0", "nom": "BORDJ-BADJ-MOKHTAR", "surface": "S", "radiosonde": null, "radiowind": null, "latitude": 21.3333, "longitude": 0.95, "hp": 399.0, "hha": 398.0 }, "geometry": { "type": "Point", "coordinates": [ 0.95, 21.3333 ] } }
,
{ "type": "Feature", "properties": { "region": 1, "pays": "ANGOLA", "id_wmo": "66118", "id_subnbr": "0", "nom": "NBANZA-KONGO", "surface": "S", "radiosonde": null, "radiowind": null, "latitude": -6.26667, "longitude": 14.25, "hp": null, "hha": null }, "geometry": { "type": "Point", "coordinates": [ 14.25, -6.26667 ] } }
,
{ "type": "Feature", "properties": { "region": 1, "pays": "ANGOLA", "id_wmo": "66130", "id_subnbr": "0", "nom": "N'ZETO (AMBRIZETE)", "surface": "S", "radiosonde": null, "radiowind": null, "latitude": -7.23333, "longitude": 12.8667, "hp": 17.0, "hha": 18.0 }, "geometry": { "type": "Point", "coordinates": [ 12.8667, -7.23333 ] } }
,
{ "type": "Feature", "properties": { "region": 1, "pays": "ANGOLA", "id_wmo": "66152", "id_subnbr": "0", "nom": "DUNDO", "surface": "S", "radiosonde": null, "radiowind": null, "latitude": -7.4, "longitude": 20.8167, "hp": 776.0, "hha": 775.0 }, "geometry": { "type": "Point", "coordinates": [ 20.8167, -7.4 ] } }
,
{ "type": "Feature", "properties": { "region": 1, "pays": "ANGOLA", "id_wmo": "66160", "id_subnbr": "0", "nom": "LUANDA", "surface": "S", "radiosonde": "R", "radiowind": "W", "latitude": -8.85, "longitude": 13.2333, "hp": 70.0, "hha": 74.0 }, "geometry": { "type": "Point", "coordinates": [ 13.2333, -8.85 ] } }
,
{ "type": "Feature", "properties": { "region": 1, "pays": "ANGOLA", "id_wmo": "66240", "id_subnbr": "0", "nom": "PORTO AMBOIM", "surface": "S", "radiosonde": null, "radiowind": null, "latitude": -10.7, "longitude": 13.75, "hp": 5.0, "hha": 5.0 }, "geometry": { "type": "Point", "coordinates": [ 13.75, -10.7 ] } }
,
{ "type": "Feature", "properties": { "region": 1, "pays": "ANGOLA", "id_wmo": "66260", "id_subnbr": "0", "nom": "SUMBE", "surface": "S", "radiosonde": null, "radiowind": null, "latitude": -11.2, "longitude": 13.85, "hp": null, "hha": null }, "geometry": { "type": "Point", "coordinates": [ 13.85, -11.2 ] } }
,
{ "type": "Feature", "properties": { "region": 1, "pays": "ANGOLA", "id_wmo": "66270", "id_subnbr": "0", "nom": "WAKU KUNGU (CELA)", "surface": "S", "radiosonde": null, "radiowind": null, "latitude": -11.4167, "longitude": 15.1167, "hp": 1304.0, "hha": 1304.0 }, "geometry": { "type": "Point", "coordinates": [ 15.1167, -11.4167 ] } }
,
{ "type": "Feature", "properties": { "region": 1, "pays": "ANGOLA", "id_wmo": "66310", "id_subnbr": "0", "nom": "MONBACA (BENGUELA)", "surface": "S", "radiosonde": null, "radiowind": null, "latitude": -12.5833, "longitude": 13.4167, "hp": 4.0, "hha": 33.0 }, "geometry": { "type": "Point", "coordinates": [ 13.4167, -12.5833 ] } }
,
{ "type": "Feature", "properties": { "region": 1, "pays": "ANGOLA", "id_wmo": "66318", "id_subnbr": "0", "nom": "HUAMBO (NOVA LISBOA)", "surface": "S", "radiosonde": null, "radiowind": null, "latitude": -12.8, "longitude": 15.75, "hp": 1701.0, "hha": 1710.0 }, "geometry": { "type": "Point", "coordinates": [ 15.75, -12.8 ] } }
,
{ "type": "Feature", "properties": { "region": 1, "pays": "ANGOLA", "id_wmo": "66390", "id_subnbr": "0", "nom": "LUBANGO (SA DA BANDEIRA)", "surface": "S", "radiosonde": "R", "radiowind": "W", "latitude": -14.9333, "longitude": 13.5667, "hp": 1758.0, "hha": 1760.0 }, "geometry": { "type": "Point", "coordinates": [ 13.5667, -14.9333 ] } }
,
{ "type": "Feature", "properties": { "region": 1, "pays": "ANGOLA", "id_wmo": "66410", "id_subnbr": "0", "nom": "MENONGUE (SERPA PINTO)", "surface": "S", "radiosonde": null, "radiowind": null, "latitude": -14.65, "longitude": 17.6833, "hp": 1343.0, "hha": 1348.0 }, "geometry": { "type": "Point", "coordinates": [ 17.6833, -14.65 ] } }
,
{ "type": "Feature", "properties": { "region": 1, "pays": "ANGOLA", "id_wmo": "66422", "id_subnbr": "0", "nom": "MOCAMEDES", "surface": "S", "radiosonde": null, "radiowind": null, "latitude": -15.2, "longitude": 12.15, "hp": 45.0, "hha": 43.0 }, "geometry": { "type": "Point", "coordinates": [ 12.15, -15.2 ] } }
,
{ "type": "Feature", "properties": { "region": 1, "pays": "ANGOLA", "id_wmo": "66447", "id_subnbr": "0", "nom": "MAVINGA", "surface": "S", "radiosonde": null, "radiowind": null, "latitude": -15.8333, "longitude": 20.35, "hp": 1088.0, "hha": 1118.0 }, "geometry": { "type": "Point", "coordinates": [ 20.35, -15.8333 ] } }
,
{ "type": "Feature", "properties": { "region": 1, "pays": "ANGOLA", "id_wmo": "66460", "id_subnbr": "0", "nom": "PEREIRA DE ECA", "surface": "S", "radiosonde": null, "radiowind": null, "latitude": -17.0833, "longitude": 15.7333, "hp": 1109.0, "hha": 1108.0 }, "geometry": { "type": "Point", "coordinates": [ 15.7333, -17.0833 ] } }
,
{ "type": "Feature", "properties": { "region": 1, "pays": "BENIN", "id_wmo": "65306", "id_subnbr": "0", "nom": "KANDI", "surface": "S", "radiosonde": null, "radiowind": null, "latitude": 11.1333, "longitude": 2.93333, "hp": 292.0, "hha": 290.0 }, "geometry": { "type": "Point", "coordinates": [ 2.93333, 11.1333 ] } }
,
{ "type": "Feature", "properties": { "region": 1, "pays": "BENIN", "id_wmo": "65319", "id_subnbr": "0", "nom": "NATITINGOU", "surface": "S", "radiosonde": null, "radiowind": null, "latitude": 10.3167, "longitude": 1.38333, "hp": 461.0, "hha": 460.0 }, "geometry": { "type": "Point", "coordinates": [ 1.38333, 10.3167 ] } }
,
{ "type": "Feature", "properties": { "region": 1, "pays": "BENIN", "id_wmo": "65330", "id_subnbr": "0", "nom": "PARAKOU", "surface": "S", "radiosonde": null, "radiowind": null, "latitude": 9.35, "longitude": 2.61667, "hp": 393.0, "hha": 392.0 }, "geometry": { "type": "Point", "coordinates": [ 2.61667, 9.35 ] } }
,
{ "type": "Feature", "properties": { "region": 1, "pays": "BENIN", "id_wmo": "65335", "id_subnbr": "0", "nom": "SAVE", "surface": "S", "radiosonde": null, "radiowind": null, "latitude": 8.03333, "longitude": 2.46667, "hp": 200.0, "hha": 199.0 }, "geometry": { "type": "Point", "coordinates": [ 2.46667, 8.03333 ] } }
,
{ "type": "Feature", "properties": { "region": 1, "pays": "BENIN", "id_wmo": "65338", "id_subnbr": "0", "nom": "BOHICON", "surface": "S", "radiosonde": null, "radiowind": null, "latitude": 7.16667, "longitude": 2.06667, "hp": 167.0, "hha": 166.0 }, "geometry": { "type": "Point", "coordinates": [ 2.06667, 7.16667 ] } }
,
{ "type": "Feature", "properties": { "region": 1, "pays": "BENIN", "id_wmo": "65344", "id_subnbr": "0", "nom": "COTONOU", "surface": "S", "radiosonde": null, "radiowind": null, "latitude": 6.35, "longitude": 2.38333, "hp": 9.0, "hha": 5.0 }, "geometry": { "type": "Point", "coordinates": [ 2.38333, 6.35 ] } }
,
{ "type": "Feature", "properties": { "region": 1, "pays": "BOTSWANA", "id_wmo": "68024", "id_subnbr": "0", "nom": "GHANZI", "surface": "S", "radiosonde": null, "radiowind": null, "latitude": -21.7, "longitude": 21.65, "hp": 1100.0, "hha": 1131.0 }, "geometry": { "type": "Point", "coordinates": [ 21.65, -21.7 ] } }
,
{ "type": "Feature", "properties": { "region": 1, "pays": "BOTSWANA", "id_wmo": "68026", "id_subnbr": "0", "nom": "SHAKAWE", "surface": "S", "radiosonde": null, "radiowind": null, "latitude": -18.3667, "longitude": 21.85, "hp": 1000.0, "hha": 1032.0 }, "geometry": { "type": "Point", "coordinates": [ 21.85, -18.3667 ] } }
,
{ "type": "Feature", "properties": { "region": 1, "pays": "BOTSWANA", "id_wmo": "68029", "id_subnbr": "0", "nom": "KASANE", "surface": "S", "radiosonde": null, "radiowind": null, "latitude": -17.8167, "longitude": 25.15, "hp": 1000.0, "hha": 968.0 }, "geometry": { "type": "Point", "coordinates": [ 25.15, -17.8167 ] } }
,
{ "type": "Feature", "properties": { "region": 1, "pays": "BOTSWANA", "id_wmo": "68030", "id_subnbr": "0", "nom": "PANDAMATENGA", "surface": "S", "radiosonde": null, "radiowind": null, "latitude": -18.5333, "longitude": 25.6333, "hp": 1071.0, "hha": null }, "geometry": { "type": "Point", "coordinates": [ 25.6333, -18.5333 ] } }
,
{ "type": "Feature", "properties": { "region": 1, "pays": "BOTSWANA", "id_wmo": "68032", "id_subnbr": "0", "nom": "MAUN", "surface": "S", "radiosonde": "R", "radiowind": "W", "latitude": -19.9833, "longitude": 23.4167, "hp": 900.0, "hha": 945.0 }, "geometry": { "type": "Point", "coordinates": [ 23.4167, -19.9833 ] } }
,
{ "type": "Feature", "properties": { "region": 1, "pays": "BOTSWANA", "id_wmo": "68038", "id_subnbr": "0", "nom": "SUA-PAN", "surface": "S", "radiosonde": null, "radiowind": null, "latitude": -20.5592, "longitude": 26.2175, "hp": 904.0, "hha": 903.0 }, "geometry": { "type": "Point", "coordinates": [ 26.2175, -20.5592 ] } }
,
{ "type": "Feature", "properties": { "region": 1, "pays": "BOTSWANA", "id_wmo": "68040", "id_subnbr": "0", "nom": "LETLHAKANE", "surface": "S", "radiosonde": "R", "radiowind": "W", "latitude": -21.4167, "longitude": 25.6, "hp": 985.0, "hha": 986.0 }, "geometry": { "type": "Point", "coordinates": [ 25.6, -21.4167 ] } }
,
{ "type": "Feature", "properties": { "region": 1, "pays": "BOTSWANA", "id_wmo": "68054", "id_subnbr": "0", "nom": "FRANCISTOWN", "surface": "S", "radiosonde": null, "radiowind": null, "latitude": -21.3239, "longitude": 27.4692, "hp": null, "hha": 1009.43 }, "geometry": { "type": "Point", "coordinates": [ 27.4692, -21.3239 ] } }
,
{ "type": "Feature", "properties": { "region": 1, "pays": "BOTSWANA", "id_wmo": "68070", "id_subnbr": "0", "nom": "SELEBI-PHIKWE", "surface": "S", "radiosonde": null, "radiowind": null, "latitude": -22.05, "longitude": 27.8167, "hp": 892.0, "hha": null }, "geometry": { "type": "Point", "coordinates": [ 27.8167, -22.05 ] } }
,
{ "type": "Feature", "properties": { "region": 1, "pays": "BOTSWANA", "id_wmo": "68148", "id_subnbr": "0", "nom": "MAHALAPYE", "surface": "S", "radiosonde": null, "radiowind": null, "latitude": -23.0833, "longitude": 26.8, "hp": 1006.0, "hha": 991.0 }, "geometry": { "type": "Point", "coordinates": [ 26.8, -23.0833 ] } }
,
{ "type": "Feature", "properties": { "region": 1, "pays": "BOTSWANA", "id_wmo": "68234", "id_subnbr": "0", "nom": "JWANENG", "surface": "S", "radiosonde": null, "radiowind": null, "latitude": -24.6, "longitude": 24.6667, "hp": 1200.0, "hha": 1189.0 }, "geometry": { "type": "Point", "coordinates": [ 24.6667, -24.6 ] } }
,
{ "type": "Feature", "properties": { "region": 1, "pays": "BOTSWANA", "id_wmo": "68240", "id_subnbr": "0", "nom": "SERETSE KHAMA INTERNATIONAL AIRPORT", "surface": "S", "radiosonde": "R", "radiowind": "W", "latitude": -24.55, "longitude": 25.9167, "hp": null, "hha": 1005.0 }, "geometry": { "type": "Point", "coordinates": [ 25.9167, -24.55 ] } }
,
{ "type": "Feature", "properties": { "region": 1, "pays": "BOTSWANA", "id_wmo": "68320", "id_subnbr": "0", "nom": "WERDA", "surface": "S", "radiosonde": null, "radiowind": null, "latitude": -25.2667, "longitude": 23.25, "hp": 1000.0, "hha": 1046.0 }, "geometry": { "type": "Point", "coordinates": [ 23.25, -25.2667 ] } }
,
{ "type": "Feature", "properties": { "region": 1, "pays": "BOTSWANA", "id_wmo": "68328", "id_subnbr": "0", "nom": "TSABONG", "surface": "S", "radiosonde": "R", "radiowind": "W", "latitude": -26.05, "longitude": 22.45, "hp": 1000.0, "hha": 960.0 }, "geometry": { "type": "Point", "coordinates": [ 22.45, -26.05 ] } }
,
{ "type": "Feature", "properties": { "region": 1, "pays": "ILE BOUVET", "id_wmo": "68992", "id_subnbr": "0", "nom": "BOUVET ISLAND", "surface": "S", "radiosonde": null, "radiowind": null, "latitude": -54.4, "longitude": 3.28333, "hp": 42.0, "hha": 42.0 }, "geometry": { "type": "Point", "coordinates": [ 3.28333, -54.4 ] } }
,
{ "type": "Feature", "properties": { "region": 1, "pays": "BURKINA FASO", "id_wmo": "65501", "id_subnbr": "0", "nom": "DORI", "surface": "S", "radiosonde": null, "radiowind": null, "latitude": 14.0333, "longitude": -0.0333333, "hp": 277.0, "hha": 276.0 }, "geometry": { "type": "Point", "coordinates": [ -0.0333333, 14.0333 ] } }
,
{ "type": "Feature", "properties": { "region": 1, "pays": "BURKINA FASO", "id_wmo": "65502", "id_subnbr": "0", "nom": "OUAHIGOUYA", "surface": "S", "radiosonde": null, "radiowind": null, "latitude": 13.5833, "longitude": -2.43333, "hp": null, "hha": 329.0 }, "geometry": { "type": "Point", "coordinates": [ -2.43333, 13.5833 ] } }
,
{ "type": "Feature", "properties": { "region": 1, "pays": "BURKINA FASO", "id_wmo": "65503", "id_subnbr": "0", "nom": "OUAGADOUGOU", "surface": "S", "radiosonde": "R", "radiowind": "W", "latitude": 12.35, "longitude": -1.51667, "hp": 306.0, "hha": 303.0 }, "geometry": { "type": "Point", "coordinates": [ -1.51667, 12.35 ] } }
,
{ "type": "Feature", "properties": { "region": 1, "pays": "BURKINA FASO", "id_wmo": "65505", "id_subnbr": "0", "nom": "DEDOUGOU", "surface": "S", "radiosonde": null, "radiowind": null, "latitude": 12.4667, "longitude": -3.48333, "hp": 300.0, "hha": 299.0 }, "geometry": { "type": "Point", "coordinates": [ -3.48333, 12.4667 ] } }
,
{ "type": "Feature", "properties": { "region": 1, "pays": "BURKINA FASO", "id_wmo": "65507", "id_subnbr": "0", "nom": "FADA N'GOURMA", "surface": "S", "radiosonde": null, "radiowind": null, "latitude": 12.0667, "longitude": 0.35, "hp": null, "hha": 292.0 }, "geometry": { "type": "Point", "coordinates": [ 0.35, 12.0667 ] } }
,
{ "type": "Feature", "properties": { "region": 1, "pays": "BURKINA FASO", "id_wmo": "65510", "id_subnbr": "0", "nom": "BOBO-DIOULASSO", "surface": "S", "radiosonde": null, "radiowind": null, "latitude": 11.1667, "longitude": -4.3, "hp": null, "hha": 432.0 }, "geometry": { "type": "Point", "coordinates": [ -4.3, 11.1667 ] } }
,
{ "type": "Feature", "properties": { "region": 1, "pays": "BURKINA FASO", "id_wmo": "65516", "id_subnbr": "0", "nom": "BOROMO", "surface": "S", "radiosonde": null, "radiowind": null, "latitude": 11.7333, "longitude": -2.91667, "hp": null, "hha": 264.0 }, "geometry": { "type": "Point", "coordinates": [ -2.91667, 11.7333 ] } }
,
{ "type": "Feature", "properties": { "region": 1, "pays": "BURKINA FASO", "id_wmo": "65518", "id_subnbr": "0", "nom": "PO", "surface": "S", "radiosonde": null, "radiowind": null, "latitude": 11.1667, "longitude": -1.15, "hp": null, "hha": 326.0 }, "geometry": { "type": "Point", "coordinates": [ -1.15, 11.1667 ] } }
,
{ "type": "Feature", "properties": { "region": 1, "pays": "BURKINA FASO", "id_wmo": "65522", "id_subnbr": "0", "nom": "GAOUA", "surface": "S", "radiosonde": null, "radiowind": null, "latitude": 10.3333, "longitude": -3.18333, "hp": 335.0, "hha": 333.0 }, "geometry": { "type": "Point", "coordinates": [ -3.18333, 10.3333 ] } }
,
{ "type": "Feature", "properties": { "region": 1, "pays": "BURUNDI", "id_wmo": "64390", "id_subnbr": "0", "nom": "BUJUMBURA", "surface": "S", "radiosonde": null, "radiowind": null, "latitude": -3.31667, "longitude": 29.3167, "hp": 783.0, "hha": 782.0 }, "geometry": { "type": "Point", "coordinates": [ 29.3167, -3.31667 ] } }
,
{ "type": "Feature", "properties": { "region": 1, "pays": "CAMEROUN", "id_wmo": "64851", "id_subnbr": "0", "nom": "MAROUA-SALAK", "surface": "S", "radiosonde": null, "radiowind": null, "latitude": 10.45, "longitude": 14.25, "hp": 422.0, "hha": 423.0 }, "geometry": { "type": "Point", "coordinates": [ 14.25, 10.45 ] } }
,
{ "type": "Feature", "properties": { "region": 1, "pays": "CAMEROUN", "id_wmo": "64860", "id_subnbr": "0", "nom": "GAROUA", "surface": "S", "radiosonde": null, "radiowind": null, "latitude": 9.33333, "longitude": 13.3833, "hp": 244.0, "hha": 242.0 }, "geometry": { "type": "Point", "coordinates": [ 13.3833, 9.33333 ] } }
,
{ "type": "Feature", "properties": { "region": 1, "pays": "CAMEROUN", "id_wmo": "64870", "id_subnbr": "0", "nom": "NGAOUNDERE", "surface": "S", "radiosonde": "R", "radiowind": "W", "latitude": 7.35, "longitude": 13.5667, "hp": 1104.0, "hha": 1114.0 }, "geometry": { "type": "Point", "coordinates": [ 13.5667, 7.35 ] } }
,
{ "type": "Feature", "properties": { "region": 1, "pays": "CAMEROUN", "id_wmo": "64880", "id_subnbr": "0", "nom": "BANYO", "surface": "S", "radiosonde": null, "radiowind": null, "latitude": 6.78333, "longitude": 11.8167, "hp": null, "hha": 1110.0 }, "geometry": { "type": "Point", "coordinates": [ 11.8167, 6.78333 ] } }
,
{ "type": "Feature", "properties": { "region": 1, "pays": "CAMEROUN", "id_wmo": "64890", "id_subnbr": "0", "nom": "MAMFE", "surface": "S", "radiosonde": null, "radiowind": null, "latitude": 5.71667, "longitude": 9.28333, "hp": null, "hha": 126.0 }, "geometry": { "type": "Point", "coordinates": [ 9.28333, 5.71667 ] } }
,
{ "type": "Feature", "properties": { "region": 1, "pays": "CAMEROUN", "id_wmo": "64893", "id_subnbr": "0", "nom": "KOUNDJA", "surface": "S", "radiosonde": null, "radiowind": null, "latitude": 5.65, "longitude": 10.75, "hp": 1210.0, "hha": 1208.0 }, "geometry": { "type": "Point", "coordinates": [ 10.75, 5.65 ] } }
,
{ "type": "Feature", "properties": { "region": 1, "pays": "CAMEROUN", "id_wmo": "64900", "id_subnbr": "0", "nom": "YOKO", "surface": "S", "radiosonde": null, "radiowind": null, "latitude": 5.55, "longitude": 12.3667, "hp": 1031.0, "hha": 1027.0 }, "geometry": { "type": "Point", "coordinates": [ 12.3667, 5.55 ] } }
,
{ "type": "Feature", "properties": { "region": 1, "pays": "CAMEROUN", "id_wmo": "64910", "id_subnbr": "0", "nom": "DOUALA OBS.", "surface": "S", "radiosonde": null, "radiowind": null, "latitude": 4.0, "longitude": 9.73333, "hp": 9.0, "hha": 10.0 }, "geometry": { "type": "Point", "coordinates": [ 9.73333, 4.0 ] } }
,
{ "type": "Feature", "properties": { "region": 1, "pays": "CAMEROUN", "id_wmo": "64910", "id_subnbr": "1", "nom": "DOUALA R.S.", "surface": null, "radiosonde": "R", "radiowind": "W", "latitude": 4.01667, "longitude": 9.7, "hp": 15.0, "hha": 10.0 }, "geometry": { "type": "Point", "coordinates": [ 9.7, 4.01667 ] } }
,
{ "type": "Feature", "properties": { "region": 1, "pays": "CAMEROUN", "id_wmo": "64930", "id_subnbr": "0", "nom": "BERTOUA", "surface": "S", "radiosonde": null, "radiowind": null, "latitude": 4.6, "longitude": 13.7333, "hp": 668.0, "hha": 668.0 }, "geometry": { "type": "Point", "coordinates": [ 13.7333, 4.6 ] } }
,
{ "type": "Feature", "properties": { "region": 1, "pays": "CAMEROUN", "id_wmo": "64950", "id_subnbr": "0", "nom": "YAOUNDE", "surface": "S", "radiosonde": null, "radiowind": null, "latitude": 3.83333, "longitude": 11.5167, "hp": 760.0, "hha": 751.0 }, "geometry": { "type": "Point", "coordinates": [ 11.5167, 3.83333 ] } }
,
{ "type": "Feature", "properties": { "region": 1, "pays": "CAMEROUN", "id_wmo": "64961", "id_subnbr": "0", "nom": "LOMIE", "surface": "S", "radiosonde": null, "radiowind": null, "latitude": 3.15, "longitude": 13.6167, "hp": null, "hha": 624.0 }, "geometry": { "type": "Point", "coordinates": [ 13.6167, 3.15 ] } }
,
{ "type": "Feature", "properties": { "region": 1, "pays": "CAMEROUN", "id_wmo": "64971", "id_subnbr": "0", "nom": "KRIBI", "surface": "S", "radiosonde": null, "radiowind": null, "latitude": 2.95, "longitude": 9.9, "hp": 16.0, "hha": 10.0 }, "geometry": { "type": "Point", "coordinates": [ 9.9, 2.95 ] } }
,
{ "type": "Feature", "properties": { "region": 1, "pays": "CAP-VERT", "id_wmo": "08583", "id_subnbr": "0", "nom": "MINDELO", "surface": "S", "radiosonde": null, "radiowind": null, "latitude": 16.8336, "longitude": -25.0547, "hp": 17.68, "hha": 20.0 }, "geometry": { "type": "Point", "coordinates": [ -25.0547, 16.8336 ] } }
,
{ "type": "Feature", "properties": { "region": 1, "pays": "CAP-VERT", "id_wmo": "08589", "id_subnbr": "0", "nom": "PRAIA", "surface": "S", "radiosonde": null, "radiowind": null, "latitude": 14.9411, "longitude": -23.4847, "hp": 95.1, "hha": 95.0 }, "geometry": { "type": "Point", "coordinates": [ -23.4847, 14.9411 ] } }
,
{ "type": "Feature", "properties": { "region": 1, "pays": "CAP-VERT", "id_wmo": "08594", "id_subnbr": "0", "nom": "SAL", "surface": "S", "radiosonde": "R", "radiowind": "W", "latitude": 16.7419, "longitude": -22.9489, "hp": 55.74, "hha": 54.14 }, "geometry": { "type": "Point", "coordinates": [ -22.9489, 16.7419 ] } }
,
{ "type": "Feature", "properties": { "region": 1, "pays": "REPUBLIQUE CENTRAFRICAINE", "id_wmo": "64600", "id_subnbr": "0", "nom": "BERBERATI", "surface": "S", "radiosonde": null, "radiowind": null, "latitude": 4.25, "longitude": 15.8, "hp": 583.0, "hha": 582.0 }, "geometry": { "type": "Point", "coordinates": [ 15.8, 4.25 ] } }
,
{ "type": "Feature", "properties": { "region": 1, "pays": "REPUBLIQUE CENTRAFRICAINE", "id_wmo": "64601", "id_subnbr": "0", "nom": "BOUAR", "surface": "S", "radiosonde": null, "radiowind": null, "latitude": 5.96667, "longitude": 15.6333, "hp": 1020.0, "hha": 1019.0 }, "geometry": { "type": "Point", "coordinates": [ 15.6333, 5.96667 ] } }
,
{ "type": "Feature", "properties": { "region": 1, "pays": "REPUBLIQUE CENTRAFRICAINE", "id_wmo": "64605", "id_subnbr": "0", "nom": "BOSSEMBELE", "surface": "S", "radiosonde": null, "radiowind": null, "latitude": 5.26667, "longitude": 17.6333, "hp": 674.0, "hha": 673.0 }, "geometry": { "type": "Point", "coordinates": [ 17.6333, 5.26667 ] } }
,
{ "type": "Feature", "properties": { "region": 1, "pays": "REPUBLIQUE CENTRAFRICAINE", "id_wmo": "64610", "id_subnbr": "0", "nom": "BOSSANGOA", "surface": "S", "radiosonde": null, "radiowind": null, "latitude": 6.48333, "longitude": 17.4333, "hp": 465.0, "hha": 464.0 }, "geometry": { "type": "Point", "coordinates": [ 17.4333, 6.48333 ] } }
,
{ "type": "Feature", "properties": { "region": 1, "pays": "REPUBLIQUE CENTRAFRICAINE", "id_wmo": "64650", "id_subnbr": "0", "nom": "BANGUI", "surface": "S", "radiosonde": "R", "radiowind": "W", "latitude": 4.4, "longitude": 18.5167, "hp": 366.0, "hha": 365.0 }, "geometry": { "type": "Point", "coordinates": [ 18.5167, 4.4 ] } }
,
{ "type": "Feature", "properties": { "region": 1, "pays": "REPUBLIQUE CENTRAFRICAINE", "id_wmo": "64654", "id_subnbr": "0", "nom": "N'DELE", "surface": "S", "radiosonde": null, "radiowind": null, "latitude": 8.4, "longitude": 20.65, "hp": 511.0, "hha": 510.0 }, "geometry": { "type": "Point", "coordinates": [ 20.65, 8.4 ] } }
,
{ "type": "Feature", "properties": { "region": 1, "pays": "REPUBLIQUE CENTRAFRICAINE", "id_wmo": "64655", "id_subnbr": "0", "nom": "BRIA", "surface": "S", "radiosonde": null, "radiowind": null, "latitude": 6.53333, "longitude": 21.9833, "hp": 584.0, "hha": 583.0 }, "geometry": { "type": "Point", "coordinates": [ 21.9833, 6.53333 ] } }
,
{ "type": "Feature", "properties": { "region": 1, "pays": "REPUBLIQUE CENTRAFRICAINE", "id_wmo": "64656", "id_subnbr": "0", "nom": "BANGASSOU", "surface": "S", "radiosonde": null, "radiowind": null, "latitude": 4.73333, "longitude": 22.8333, "hp": 500.0, "hha": 499.0 }, "geometry": { "type": "Point", "coordinates": [ 22.8333, 4.73333 ] } }
,
{ "type": "Feature", "properties": { "region": 1, "pays": "REPUBLIQUE CENTRAFRICAINE", "id_wmo": "64658", "id_subnbr": "0", "nom": "BIRAO", "surface": "S", "radiosonde": null, "radiowind": null, "latitude": 10.2833, "longitude": 22.7833, "hp": 464.0, "hha": 463.0 }, "geometry": { "type": "Point", "coordinates": [ 22.7833, 10.2833 ] } }
,
{ "type": "Feature", "properties": { "region": 1, "pays": "REPUBLIQUE CENTRAFRICAINE", "id_wmo": "64659", "id_subnbr": "0", "nom": "OBO", "surface": "S", "radiosonde": null, "radiowind": null, "latitude": 5.4, "longitude": 26.5, "hp": 651.0, "hha": 650.0 }, "geometry": { "type": "Point", "coordinates": [ 26.5, 5.4 ] } }
,
{ "type": "Feature", "properties": { "region": 1, "pays": "REPUBLIQUE CENTRAFRICAINE", "id_wmo": "64660", "id_subnbr": "0", "nom": "BAMBARI", "surface": "S", "radiosonde": null, "radiowind": null, "latitude": 5.85, "longitude": 20.65, "hp": 475.0, "hha": 474.0 }, "geometry": { "type": "Point", "coordinates": [ 20.65, 5.85 ] } }
,
{ "type": "Feature", "properties": { "region": 1, "pays": "REPUBLIQUE CENTRAFRICAINE", "id_wmo": "64661", "id_subnbr": "0", "nom": "YALINGA", "surface": "S", "radiosonde": null, "radiowind": null, "latitude": 6.5, "longitude": 23.2667, "hp": 602.0, "hha": 601.0 }, "geometry": { "type": "Point", "coordinates": [ 23.2667, 6.5 ] } }
,
{ "type": "Feature", "properties": { "region": 1, "pays": "REPUBLIQUE CENTRAFRICAINE", "id_wmo": "64665", "id_subnbr": "0", "nom": "MOBAYE", "surface": "S", "radiosonde": null, "radiowind": null, "latitude": 4.31667, "longitude": 21.1833, "hp": 406.0, "hha": 405.0 }, "geometry": { "type": "Point", "coordinates": [ 21.1833, 4.31667 ] } }
,
{ "type": "Feature", "properties": { "region": 1, "pays": "TCHAD", "id_wmo": "64700", "id_subnbr": "0", "nom": "NDJAMENA", "surface": "S", "radiosonde": "R", "radiowind": "W", "latitude": 12.1333, "longitude": 15.0333, "hp": 295.0, "hha": 295.0 }, "geometry": { "type": "Point", "coordinates": [ 15.0333, 12.1333 ] } }
,
{ "type": "Feature", "properties": { "region": 1, "pays": "TCHAD", "id_wmo": "64701", "id_subnbr": "0", "nom": "MAO", "surface": "S", "radiosonde": null, "radiowind": null, "latitude": 14.1167, "longitude": 15.3167, "hp": 355.0, "hha": 355.0 }, "geometry": { "type": "Point", "coordinates": [ 15.3167, 14.1167 ] } }
,
{ "type": "Feature", "properties": { "region": 1, "pays": "TCHAD", "id_wmo": "64705", "id_subnbr": "0", "nom": "BOUSSO", "surface": "S", "radiosonde": null, "radiowind": null, "latitude": 10.4833, "longitude": 16.7167, "hp": 336.0, "hha": 334.0 }, "geometry": { "type": "Point", "coordinates": [ 16.7167, 10.4833 ] } }
,
{ "type": "Feature", "properties": { "region": 1, "pays": "TCHAD", "id_wmo": "64706", "id_subnbr": "0", "nom": "MOUNDOU", "surface": "S", "radiosonde": null, "radiowind": null, "latitude": 8.56667, "longitude": 16.0667, "hp": 410.0, "hha": 428.0 }, "geometry": { "type": "Point", "coordinates": [ 16.0667, 8.56667 ] } }
,
{ "type": "Feature", "properties": { "region": 1, "pays": "TCHAD", "id_wmo": "64709", "id_subnbr": "0", "nom": "PALA", "surface": "S", "radiosonde": null, "radiowind": null, "latitude": 9.36667, "longitude": 14.9667, "hp": 320.0, "hha": 467.0 }, "geometry": { "type": "Point", "coordinates": [ 14.9667, 9.36667 ] } }
,
{ "type": "Feature", "properties": { "region": 1, "pays": "TCHAD", "id_wmo": "64750", "id_subnbr": "0", "nom": "SARH", "surface": "S", "radiosonde": null, "radiowind": null, "latitude": 9.15, "longitude": 18.3833, "hp": 365.0, "hha": 365.0 }, "geometry": { "type": "Point", "coordinates": [ 18.3833, 9.15 ] } }
,
{ "type": "Feature", "properties": { "region": 1, "pays": "TCHAD", "id_wmo": "64751", "id_subnbr": "0", "nom": "ATI", "surface": "S", "radiosonde": null, "radiowind": null, "latitude": 13.2167, "longitude": 18.3167, "hp": 334.0, "hha": 333.0 }, "geometry": { "type": "Point", "coordinates": [ 18.3167, 13.2167 ] } }
,
{ "type": "Feature", "properties": { "region": 1, "pays": "TCHAD", "id_wmo": "64753", "id_subnbr": "0", "nom": "FAYA", "surface": "S", "radiosonde": "R", "radiowind": "W", "latitude": 18.0, "longitude": 19.1667, "hp": 234.0, "hha": 235.0 }, "geometry": { "type": "Point", "coordinates": [ 19.1667, 18.0 ] } }
,
{ "type": "Feature", "properties": { "region": 1, "pays": "TCHAD", "id_wmo": "64754", "id_subnbr": "0", "nom": "AM-TIMAN", "surface": "S", "radiosonde": null, "radiowind": null, "latitude": 11.0333, "longitude": 20.2833, "hp": 436.0, "hha": 433.0 }, "geometry": { "type": "Point", "coordinates": [ 20.2833, 11.0333 ] } }
,
{ "type": "Feature", "properties": { "region": 1, "pays": "TCHAD", "id_wmo": "64756", "id_subnbr": "0", "nom": "ABECHE", "surface": "S", "radiosonde": null, "radiowind": null, "latitude": 13.85, "longitude": 20.85, "hp": 549.0, "hha": 545.0 }, "geometry": { "type": "Point", "coordinates": [ 20.85, 13.85 ] } }
,
{ "type": "Feature", "properties": { "region": 1, "pays": "TCHAD", "id_wmo": "64758", "id_subnbr": "0", "nom": "MONGO", "surface": "S", "radiosonde": null, "radiowind": null, "latitude": 12.1833, "longitude": 18.6833, "hp": 430.0, "hha": 427.0 }, "geometry": { "type": "Point", "coordinates": [ 18.6833, 12.1833 ] } }
,
{ "type": "Feature", "properties": { "region": 1, "pays": "COMORES", "id_wmo": "67002", "id_subnbr": "0", "nom": "HAHAYA INT. AIRPORT", "surface": "S", "radiosonde": null, "radiowind": null, "latitude": -11.5333, "longitude": 43.2667, "hp": 29.0, "hha": 29.0 }, "geometry": { "type": "Point", "coordinates": [ 43.2667, -11.5333 ] } }
,
{ "type": "Feature", "properties": { "region": 1, "pays": "COMORES", "id_wmo": "67005", "id_subnbr": "0", "nom": "PAMANDZI (MAYOTTE)", "surface": "S", "radiosonde": null, "radiowind": null, "latitude": -12.8056, "longitude": 45.2828, "hp": 7.0, "hha": 7.0 }, "geometry": { "type": "Point", "coordinates": [ 45.2828, -12.8056 ] } }
,
{ "type": "Feature", "properties": { "region": 1, "pays": "CONGO", "id_wmo": "64400", "id_subnbr": "0", "nom": "POINTE-NOIRE", "surface": "S", "radiosonde": "R", "radiowind": null, "latitude": -4.81667, "longitude": 11.9, "hp": 17.0, "hha": 17.0 }, "geometry": { "type": "Point", "coordinates": [ 11.9, -4.81667 ] } }
,
{ "type": "Feature", "properties": { "region": 1, "pays": "CONGO", "id_wmo": "64401", "id_subnbr": "0", "nom": "DOLISIE", "surface": "S", "radiosonde": null, "radiowind": null, "latitude": -4.2, "longitude": 12.7, "hp": 331.0, "hha": 329.0 }, "geometry": { "type": "Point", "coordinates": [ 12.7, -4.2 ] } }
,
{ "type": "Feature", "properties": { "region": 1, "pays": "CONGO", "id_wmo": "64450", "id_subnbr": "0", "nom": "BRAZZAVILLE \/MAYA-MAYA", "surface": "S", "radiosonde": null, "radiowind": null, "latitude": -4.25, "longitude": 15.25, "hp": 316.0, "hha": 319.0 }, "geometry": { "type": "Point", "coordinates": [ 15.25, -4.25 ] } }
,
{ "type": "Feature", "properties": { "region": 1, "pays": "CONGO", "id_wmo": "64453", "id_subnbr": "0", "nom": "DJAMBALA", "surface": "S", "radiosonde": null, "radiowind": null, "latitude": -2.53333, "longitude": 14.7667, "hp": 790.0, "hha": 791.0 }, "geometry": { "type": "Point", "coordinates": [ 14.7667, -2.53333 ] } }
,
{ "type": "Feature", "properties": { "region": 1, "pays": "CONGO", "id_wmo": "64456", "id_subnbr": "0", "nom": "MAKOUA", "surface": "S", "radiosonde": null, "radiowind": null, "latitude": -0.0166667, "longitude": 15.65, "hp": 380.0, "hha": 394.0 }, "geometry": { "type": "Point", "coordinates": [ 15.65, -0.0166667 ] } }
,
{ "type": "Feature", "properties": { "region": 1, "pays": "CONGO", "id_wmo": "64458", "id_subnbr": "0", "nom": "OUESSO", "surface": "S", "radiosonde": "R", "radiowind": null, "latitude": 1.61667, "longitude": 16.05, "hp": 352.0, "hha": 352.0 }, "geometry": { "type": "Point", "coordinates": [ 16.05, 1.61667 ] } }
,
{ "type": "Feature", "properties": { "region": 1, "pays": "CONGO", "id_wmo": "64459", "id_subnbr": "0", "nom": "IMPFONDO", "surface": "S", "radiosonde": null, "radiowind": null, "latitude": 1.61667, "longitude": 18.0667, "hp": 327.0, "hha": 335.0 }, "geometry": { "type": "Point", "coordinates": [ 18.0667, 1.61667 ] } }
,
{ "type": "Feature", "properties": { "region": 1, "pays": "CONGO", "id_wmo": "64460", "id_subnbr": "0", "nom": "SOUANKE", "surface": "S", "radiosonde": null, "radiowind": null, "latitude": 2.06667, "longitude": 14.0333, "hp": 550.0, "hha": 549.0 }, "geometry": { "type": "Point", "coordinates": [ 14.0333, 2.06667 ] } }
,
{ "type": "Feature", "properties": { "region": 1, "pays": "COTE D'IVOIRE", "id_wmo": "65528", "id_subnbr": "0", "nom": "ODIENNE", "surface": "S", "radiosonde": null, "radiowind": null, "latitude": 9.5, "longitude": -7.56667, "hp": 421.0, "hha": 434.0 }, "geometry": { "type": "Point", "coordinates": [ -7.56667, 9.5 ] } }
,
{ "type": "Feature", "properties": { "region": 1, "pays": "COTE D'IVOIRE", "id_wmo": "65536", "id_subnbr": "0", "nom": "KORHOGO", "surface": "S", "radiosonde": null, "radiowind": null, "latitude": 9.41667, "longitude": -5.61667, "hp": 381.0, "hha": 381.0 }, "geometry": { "type": "Point", "coordinates": [ -5.61667, 9.41667 ] } }
,
{ "type": "Feature", "properties": { "region": 1, "pays": "COTE D'IVOIRE", "id_wmo": "65545", "id_subnbr": "0", "nom": "BONDOUKOU", "surface": "S", "radiosonde": null, "radiowind": null, "latitude": 8.05, "longitude": -2.78333, "hp": 370.0, "hha": 369.0 }, "geometry": { "type": "Point", "coordinates": [ -2.78333, 8.05 ] } }
,
{ "type": "Feature", "properties": { "region": 1, "pays": "COTE D'IVOIRE", "id_wmo": "65548", "id_subnbr": "0", "nom": "MAN", "surface": "S", "radiosonde": null, "radiowind": null, "latitude": 7.38333, "longitude": -7.51667, "hp": 340.0, "hha": 339.0 }, "geometry": { "type": "Point", "coordinates": [ -7.51667, 7.38333 ] } }
,
{ "type": "Feature", "properties": { "region": 1, "pays": "COTE D'IVOIRE", "id_wmo": "65555", "id_subnbr": "0", "nom": "BOUAKE", "surface": "S", "radiosonde": null, "radiowind": null, "latitude": 7.73333, "longitude": -5.06667, "hp": 376.0, "hha": 376.0 }, "geometry": { "type": "Point", "coordinates": [ -5.06667, 7.73333 ] } }
,
{ "type": "Feature", "properties": { "region": 1, "pays": "COTE D'IVOIRE", "id_wmo": "65557", "id_subnbr": "0", "nom": "GAGNOA", "surface": "S", "radiosonde": null, "radiowind": null, "latitude": 6.13333, "longitude": -5.95, "hp": 210.0, "hha": 205.0 }, "geometry": { "type": "Point", "coordinates": [ -5.95, 6.13333 ] } }
,
{ "type": "Feature", "properties": { "region": 1, "pays": "COTE D'IVOIRE", "id_wmo": "65560", "id_subnbr": "0", "nom": "DALOA", "surface": "S", "radiosonde": null, "radiowind": null, "latitude": 6.86667, "longitude": -6.46667, "hp": 277.0, "hha": 276.0 }, "geometry": { "type": "Point", "coordinates": [ -6.46667, 6.86667 ] } }
,
{ "type": "Feature", "properties": { "region": 1, "pays": "COTE D'IVOIRE", "id_wmo": "65562", "id_subnbr": "0", "nom": "DIMBOKRO", "surface": "S", "radiosonde": null, "radiowind": null, "latitude": 6.65, "longitude": -4.7, "hp": 92.0, "hha": 92.0 }, "geometry": { "type": "Point", "coordinates": [ -4.7, 6.65 ] } }
,
{ "type": "Feature", "properties": { "region": 1, "pays": "COTE D'IVOIRE", "id_wmo": "65563", "id_subnbr": "0", "nom": "YAMOUSSOUKRO", "surface": "S", "radiosonde": null, "radiowind": null, "latitude": 6.9, "longitude": -5.35, "hp": 213.0, "hha": 196.0 }, "geometry": { "type": "Point", "coordinates": [ -5.35, 6.9 ] } }
,
{ "type": "Feature", "properties": { "region": 1, "pays": "COTE D'IVOIRE", "id_wmo": "65578", "id_subnbr": "0", "nom": "ABIDJAN", "surface": "S", "radiosonde": "R", "radiowind": "W", "latitude": 5.25, "longitude": -3.93333, "hp": 8.0, "hha": 7.0 }, "geometry": { "type": "Point", "coordinates": [ -3.93333, 5.25 ] } }
,
{ "type": "Feature", "properties": { "region": 1, "pays": "COTE D'IVOIRE", "id_wmo": "65585", "id_subnbr": "0", "nom": "ADIAKE", "surface": "S", "radiosonde": null, "radiowind": null, "latitude": 5.3, "longitude": -3.3, "hp": 39.0, "hha": 33.0 }, "geometry": { "type": "Point", "coordinates": [ -3.3, 5.3 ] } }
,
{ "type": "Feature", "properties": { "region": 1, "pays": "COTE D'IVOIRE", "id_wmo": "65592", "id_subnbr": "0", "nom": "TABOU", "surface": "S", "radiosonde": null, "radiowind": null, "latitude": 4.41667, "longitude": -7.36667, "hp": 21.0, "hha": 21.0 }, "geometry": { "type": "Point", "coordinates": [ -7.36667, 4.41667 ] } }
,
{ "type": "Feature", "properties": { "region": 1, "pays": "COTE D'IVOIRE", "id_wmo": "65594", "id_subnbr": "0", "nom": "SAN PEDRO", "surface": "S", "radiosonde": null, "radiowind": null, "latitude": 4.75, "longitude": -6.65, "hp": 30.0, "hha": 30.0 }, "geometry": { "type": "Point", "coordinates": [ -6.65, 4.75 ] } }
,
{ "type": "Feature", "properties": { "region": 1, "pays": "COTE D'IVOIRE", "id_wmo": "65599", "id_subnbr": "0", "nom": "SASSANDRA", "surface": "S", "radiosonde": null, "radiowind": null, "latitude": 4.95, "longitude": -6.08333, "hp": 66.0, "hha": 62.0 }, "geometry": { "type": "Point", "coordinates": [ -6.08333, 4.95 ] } }
,
{ "type": "Feature", "properties": { "region": 1, "pays": "REPUBLIQUE DEMOCRATIQUE DU CONGO", "id_wmo": "64005", "id_subnbr": "0", "nom": "MBANDAKA", "surface": "S", "radiosonde": null, "radiowind": null, "latitude": 0.05, "longitude": 18.2667, "hp": 317.0, "hha": 345.0 }, "geometry": { "type": "Point", "coordinates": [ 18.2667, 0.05 ] } }
,
{ "type": "Feature", "properties": { "region": 1, "pays": "REPUBLIQUE DEMOCRATIQUE DU CONGO", "id_wmo": "64006", "id_subnbr": "0", "nom": "GEMENA", "surface": "S", "radiosonde": null, "radiowind": null, "latitude": 3.28333, "longitude": 19.7833, "hp": 446.0, "hha": 475.0 }, "geometry": { "type": "Point", "coordinates": [ 19.7833, 3.28333 ] } }
,
{ "type": "Feature", "properties": { "region": 1, "pays": "REPUBLIQUE DEMOCRATIQUE DU CONGO", "id_wmo": "64008", "id_subnbr": "0", "nom": "BASANKUSU", "surface": "S", "radiosonde": null, "radiowind": null, "latitude": 1.21667, "longitude": 19.8, "hp": 353.0, "hha": 360.0 }, "geometry": { "type": "Point", "coordinates": [ 19.8, 1.21667 ] } }
,
{ "type": "Feature", "properties": { "region": 1, "pays": "REPUBLIQUE DEMOCRATIQUE DU CONGO", "id_wmo": "64018", "id_subnbr": "0", "nom": "BASOKO", "surface": "S", "radiosonde": null, "radiowind": null, "latitude": 1.25, "longitude": 23.6, "hp": 366.0, "hha": 410.0 }, "geometry": { "type": "Point", "coordinates": [ 23.6, 1.25 ] } }
,
{ "type": "Feature", "properties": { "region": 1, "pays": "REPUBLIQUE DEMOCRATIQUE DU CONGO", "id_wmo": "64040", "id_subnbr": "0", "nom": "KISANGANI", "surface": "S", "radiosonde": "R", "radiowind": "W", "latitude": 0.516667, "longitude": 25.1833, "hp": 396.0, "hha": 415.0 }, "geometry": { "type": "Point", "coordinates": [ 25.1833, 0.516667 ] } }
,
{ "type": "Feature", "properties": { "region": 1, "pays": "REPUBLIQUE DEMOCRATIQUE DU CONGO", "id_wmo": "64062", "id_subnbr": "0", "nom": "ISIRO", "surface": "S", "radiosonde": null, "radiowind": null, "latitude": 2.76667, "longitude": 27.65, "hp": 764.0, "hha": 806.0 }, "geometry": { "type": "Point", "coordinates": [ 27.65, 2.76667 ] } }
,
{ "type": "Feature", "properties": { "region": 1, "pays": "REPUBLIQUE DEMOCRATIQUE DU CONGO", "id_wmo": "64076", "id_subnbr": "0", "nom": "BUNIA", "surface": "S", "radiosonde": null, "radiowind": null, "latitude": 1.5, "longitude": 30.2167, "hp": 1239.0, "hha": null }, "geometry": { "type": "Point", "coordinates": [ 30.2167, 1.5 ] } }
,
{ "type": "Feature", "properties": { "region": 1, "pays": "REPUBLIQUE DEMOCRATIQUE DU CONGO", "id_wmo": "64108", "id_subnbr": "0", "nom": "BANDUNDU", "surface": "S", "radiosonde": null, "radiowind": null, "latitude": -3.3, "longitude": 17.35, "hp": 324.0, "hha": null }, "geometry": { "type": "Point", "coordinates": [ 17.35, -3.3 ] } }
,
{ "type": "Feature", "properties": { "region": 1, "pays": "REPUBLIQUE DEMOCRATIQUE DU CONGO", "id_wmo": "64115", "id_subnbr": "0", "nom": "INONGO", "surface": "S", "radiosonde": null, "radiowind": null, "latitude": -1.96667, "longitude": 18.2667, "hp": 300.0, "hha": null }, "geometry": { "type": "Point", "coordinates": [ 18.2667, -1.96667 ] } }
,
{ "type": "Feature", "properties": { "region": 1, "pays": "REPUBLIQUE DEMOCRATIQUE DU CONGO", "id_wmo": "64126", "id_subnbr": "0", "nom": "BOENDE", "surface": "S", "radiosonde": null, "radiowind": null, "latitude": -0.216667, "longitude": 20.85, "hp": 351.0, "hha": null }, "geometry": { "type": "Point", "coordinates": [ 20.85, -0.216667 ] } }
,
{ "type": "Feature", "properties": { "region": 1, "pays": "REPUBLIQUE DEMOCRATIQUE DU CONGO", "id_wmo": "64146", "id_subnbr": "0", "nom": "LODJA", "surface": "S", "radiosonde": null, "radiowind": null, "latitude": -3.48333, "longitude": 23.4667, "hp": 500.0, "hha": 479.0 }, "geometry": { "type": "Point", "coordinates": [ 23.4667, -3.48333 ] } }
,
{ "type": "Feature", "properties": { "region": 1, "pays": "REPUBLIQUE DEMOCRATIQUE DU CONGO", "id_wmo": "64155", "id_subnbr": "0", "nom": "KINDU", "surface": "S", "radiosonde": null, "radiowind": null, "latitude": -2.95, "longitude": 25.9167, "hp": 497.0, "hha": null }, "geometry": { "type": "Point", "coordinates": [ 25.9167, -2.95 ] } }
,
{ "type": "Feature", "properties": { "region": 1, "pays": "REPUBLIQUE DEMOCRATIQUE DU CONGO", "id_wmo": "64180", "id_subnbr": "0", "nom": "BUKAVU", "surface": "S", "radiosonde": null, "radiowind": null, "latitude": -2.51667, "longitude": 28.85, "hp": 1612.0, "hha": null }, "geometry": { "type": "Point", "coordinates": [ 28.85, -2.51667 ] } }
,
{ "type": "Feature", "properties": { "region": 1, "pays": "REPUBLIQUE DEMOCRATIQUE DU CONGO", "id_wmo": "64184", "id_subnbr": "0", "nom": "GOMA", "surface": "S", "radiosonde": null, "radiowind": null, "latitude": -1.68333, "longitude": 29.2333, "hp": 1552.0, "hha": null }, "geometry": { "type": "Point", "coordinates": [ 29.2333, -1.68333 ] } }
,
{ "type": "Feature", "properties": { "region": 1, "pays": "REPUBLIQUE DEMOCRATIQUE DU CONGO", "id_wmo": "64206", "id_subnbr": "0", "nom": "INGA", "surface": "S", "radiosonde": null, "radiowind": null, "latitude": -5.51667, "longitude": 13.5833, "hp": 277.0, "hha": null }, "geometry": { "type": "Point", "coordinates": [ 13.5833, -5.51667 ] } }
,
{ "type": "Feature", "properties": { "region": 1, "pays": "REPUBLIQUE DEMOCRATIQUE DU CONGO", "id_wmo": "64207", "id_subnbr": "0", "nom": "MATADI", "surface": "S", "radiosonde": null, "radiowind": null, "latitude": -5.8, "longitude": 13.4333, "hp": 340.0, "hha": 355.0 }, "geometry": { "type": "Point", "coordinates": [ 13.4333, -5.8 ] } }
,
{ "type": "Feature", "properties": { "region": 1, "pays": "REPUBLIQUE DEMOCRATIQUE DU CONGO", "id_wmo": "64210", "id_subnbr": "0", "nom": "KINSHASA\/N'DJILI", "surface": "S", "radiosonde": "R", "radiowind": "W", "latitude": -4.38333, "longitude": 15.4333, "hp": 312.0, "hha": 309.0 }, "geometry": { "type": "Point", "coordinates": [ 15.4333, -4.38333 ] } }
,
{ "type": "Feature", "properties": { "region": 1, "pays": "REPUBLIQUE DEMOCRATIQUE DU CONGO", "id_wmo": "64211", "id_subnbr": "0", "nom": "KINSHASA\/N'DOLO", "surface": "S", "radiosonde": null, "radiowind": null, "latitude": -4.31667, "longitude": 15.3167, "hp": 282.0, "hha": null }, "geometry": { "type": "Point", "coordinates": [ 15.3167, -4.31667 ] } }
,
{ "type": "Feature", "properties": { "region": 1, "pays": "REPUBLIQUE DEMOCRATIQUE DU CONGO", "id_wmo": "64220", "id_subnbr": "0", "nom": "KINSHASA\/BINZA", "surface": "S", "radiosonde": null, "radiowind": null, "latitude": -4.36667, "longitude": 15.25, "hp": 445.0, "hha": null }, "geometry": { "type": "Point", "coordinates": [ 15.25, -4.36667 ] } }
,
{ "type": "Feature", "properties": { "region": 1, "pays": "REPUBLIQUE DEMOCRATIQUE DU CONGO", "id_wmo": "64222", "id_subnbr": "0", "nom": "KIKWIT", "surface": "S", "radiosonde": null, "radiowind": null, "latitude": -5.03333, "longitude": 18.8, "hp": 449.0, "hha": 518.0 }, "geometry": { "type": "Point", "coordinates": [ 18.8, -5.03333 ] } }
,
{ "type": "Feature", "properties": { "region": 1, "pays": "REPUBLIQUE DEMOCRATIQUE DU CONGO", "id_wmo": "64228", "id_subnbr": "0", "nom": "TSHIKAPA", "surface": "S", "radiosonde": null, "radiowind": null, "latitude": -6.41667, "longitude": 20.85, "hp": 481.0, "hha": 521.0 }, "geometry": { "type": "Point", "coordinates": [ 20.85, -6.41667 ] } }
,
{ "type": "Feature", "properties": { "region": 1, "pays": "REPUBLIQUE DEMOCRATIQUE DU CONGO", "id_wmo": "64235", "id_subnbr": "0", "nom": "KANANGA", "surface": "S", "radiosonde": "R", "radiowind": "W", "latitude": -5.88333, "longitude": 22.4167, "hp": 657.0, "hha": 654.0 }, "geometry": { "type": "Point", "coordinates": [ 22.4167, -5.88333 ] } }
,
{ "type": "Feature", "properties": { "region": 1, "pays": "REPUBLIQUE DEMOCRATIQUE DU CONGO", "id_wmo": "64247", "id_subnbr": "0", "nom": "MBUJI-MAYI", "surface": "S", "radiosonde": null, "radiowind": null, "latitude": -6.16667, "longitude": 23.6167, "hp": 677.0, "hha": 633.0 }, "geometry": { "type": "Point", "coordinates": [ 23.6167, -6.16667 ] } }
,
{ "type": "Feature", "properties": { "region": 1, "pays": "REPUBLIQUE DEMOCRATIQUE DU CONGO", "id_wmo": "64276", "id_subnbr": "0", "nom": "KONGOLO", "surface": "S", "radiosonde": null, "radiowind": null, "latitude": -5.35, "longitude": 27.0, "hp": 561.0, "hha": null }, "geometry": { "type": "Point", "coordinates": [ 27.0, -5.35 ] } }
,
{ "type": "Feature", "properties": { "region": 1, "pays": "REPUBLIQUE DEMOCRATIQUE DU CONGO", "id_wmo": "64282", "id_subnbr": "0", "nom": "MANONO", "surface": "S", "radiosonde": null, "radiowind": null, "latitude": -7.28333, "longitude": 27.4333, "hp": 633.0, "hha": 614.0 }, "geometry": { "type": "Point", "coordinates": [ 27.4333, -7.28333 ] } }
,
{ "type": "Feature", "properties": { "region": 1, "pays": "REPUBLIQUE DEMOCRATIQUE DU CONGO", "id_wmo": "64285", "id_subnbr": "0", "nom": "KALEMIE", "surface": "S", "radiosonde": null, "radiowind": null, "latitude": -5.88333, "longitude": 29.1833, "hp": 818.0, "hha": 790.0 }, "geometry": { "type": "Point", "coordinates": [ 29.1833, -5.88333 ] } }
,
{ "type": "Feature", "properties": { "region": 1, "pays": "REPUBLIQUE DEMOCRATIQUE DU CONGO", "id_wmo": "64315", "id_subnbr": "0", "nom": "KAMINA\/BASE", "surface": "S", "radiosonde": null, "radiowind": null, "latitude": -8.63333, "longitude": 25.25, "hp": 1106.0, "hha": 1088.0 }, "geometry": { "type": "Point", "coordinates": [ 25.25, -8.63333 ] } }
,
{ "type": "Feature", "properties": { "region": 1, "pays": "REPUBLIQUE DEMOCRATIQUE DU CONGO", "id_wmo": "64328", "id_subnbr": "0", "nom": "KOLWEZI", "surface": "S", "radiosonde": null, "radiowind": null, "latitude": -10.7167, "longitude": 25.45, "hp": 1526.0, "hha": 1405.0 }, "geometry": { "type": "Point", "coordinates": [ 25.45, -10.7167 ] } }
,
{ "type": "Feature", "properties": { "region": 1, "pays": "REPUBLIQUE DEMOCRATIQUE DU CONGO", "id_wmo": "64360", "id_subnbr": "0", "nom": "LUBUMBASHI-LUANO", "surface": "S", "radiosonde": null, "radiowind": null, "latitude": -11.6667, "longitude": 27.4833, "hp": 1298.0, "hha": 1276.0 }, "geometry": { "type": "Point", "coordinates": [ 27.4833, -11.6667 ] } }
,
{ "type": "Feature", "properties": { "region": 1, "pays": "DJIBOUTI", "id_wmo": "63125", "id_subnbr": "0", "nom": "DJIBOUTI", "surface": "S", "radiosonde": null, "radiowind": null, "latitude": 11.55, "longitude": 43.15, "hp": 19.0, "hha": 13.0 }, "geometry": { "type": "Point", "coordinates": [ 43.15, 11.55 ] } }
,
{ "type": "Feature", "properties": { "region": 1, "pays": "EGYPTE", "id_wmo": "62305", "id_subnbr": "0", "nom": "SALLUM PLATEAU", "surface": "S", "radiosonde": null, "radiowind": null, "latitude": 31.5703, "longitude": 25.1317, "hp": 6.0, "hha": null }, "geometry": { "type": "Point", "coordinates": [ 25.1317, 31.5703 ] } }
,
{ "type": "Feature", "properties": { "region": 1, "pays": "EGYPTE", "id_wmo": "62306", "id_subnbr": "0", "nom": "MERSA MATRUH", "surface": "S", "radiosonde": "R", "radiowind": "W", "latitude": 31.3253, "longitude": 27.2217, "hp": 30.0, "hha": 28.96 }, "geometry": { "type": "Point", "coordinates": [ 27.2217, 31.3253 ] } }
,
{ "type": "Feature", "properties": { "region": 1, "pays": "EGYPTE", "id_wmo": "62309", "id_subnbr": "0", "nom": "DABAA", "surface": "S", "radiosonde": null, "radiowind": null, "latitude": 31.0328, "longitude": 28.4447, "hp": 18.0, "hha": 17.0 }, "geometry": { "type": "Point", "coordinates": [ 28.4447, 31.0328 ] } }
,
{ "type": "Feature", "properties": { "region": 1, "pays": "EGYPTE", "id_wmo": "62325", "id_subnbr": "0", "nom": "BALTIM", "surface": "S", "radiosonde": null, "radiowind": null, "latitude": 31.5539, "longitude": 31.0844, "hp": 2.17, "hha": 1.0 }, "geometry": { "type": "Point", "coordinates": [ 31.0844, 31.5539 ] } }
,
{ "type": "Feature", "properties": { "region": 1, "pays": "EGYPTE", "id_wmo": "62332", "id_subnbr": "0", "nom": "PORT SAID\/EL GAMIL", "surface": "S", "radiosonde": null, "radiowind": null, "latitude": 31.2789, "longitude": 32.2378, "hp": 6.1, "hha": 2.44 }, "geometry": { "type": "Point", "coordinates": [ 32.2378, 31.2789 ] } }
,
{ "type": "Feature", "properties": { "region": 1, "pays": "EGYPTE", "id_wmo": "62337", "id_subnbr": "0", "nom": "EL ARISH", "surface": "S", "radiosonde": "R", "radiowind": "W", "latitude": 31.0733, "longitude": 33.8358, "hp": 31.8, "hha": 36.88 }, "geometry": { "type": "Point", "coordinates": [ 33.8358, 31.0733 ] } }
,
{ "type": "Feature", "properties": { "region": 1, "pays": "EGYPTE", "id_wmo": "62357", "id_subnbr": "0", "nom": "WADI EL NATROON AGRIMET", "surface": "S", "radiosonde": null, "radiowind": null, "latitude": 30.4025, "longitude": 30.3633, "hp": 1.0, "hha": null }, "geometry": { "type": "Point", "coordinates": [ 30.3633, 30.4025 ] } }
,
{ "type": "Feature", "properties": { "region": 1, "pays": "EGYPTE", "id_wmo": "62366", "id_subnbr": "0", "nom": "CAIRO", "surface": "S", "radiosonde": null, "radiowind": null, "latitude": 30.1114, "longitude": 31.4139, "hp": 74.5, "hha": 116.43 }, "geometry": { "type": "Point", "coordinates": [ 31.4139, 30.1114 ] } }
,
{ "type": "Feature", "properties": { "region": 1, "pays": "EGYPTE", "id_wmo": "62378", "id_subnbr": "0", "nom": "HELWAN", "surface": "S", "radiosonde": "R", "radiowind": "W", "latitude": 29.8628, "longitude": 31.3492, "hp": 140.7, "hha": 139.3 }, "geometry": { "type": "Point", "coordinates": [ 31.3492, 29.8628 ] } }
,
{ "type": "Feature", "properties": { "region": 1, "pays": "EGYPTE", "id_wmo": "62387", "id_subnbr": "0", "nom": "MINYA", "surface": "S", "radiosonde": null, "radiowind": null, "latitude": 28.0833, "longitude": 30.7333, "hp": 40.5, "hha": 37.15 }, "geometry": { "type": "Point", "coordinates": [ 30.7333, 28.0833 ] } }
,
{ "type": "Feature", "properties": { "region": 1, "pays": "EGYPTE", "id_wmo": "62393", "id_subnbr": "0", "nom": "ASYUT", "surface": "S", "radiosonde": null, "radiowind": null, "latitude": 27.0381, "longitude": 31.0119, "hp": 226.0, "hha": 235.31 }, "geometry": { "type": "Point", "coordinates": [ 31.0119, 27.0381 ] } }
,
{ "type": "Feature", "properties": { "region": 1, "pays": "EGYPTE", "id_wmo": "62403", "id_subnbr": "0", "nom": "SOUTH OF VALLEY UNIVERSITY", "surface": "S", "radiosonde": "R", "radiowind": "W", "latitude": 26.2003, "longitude": 32.7467, "hp": 77.3, "hha": 95.99 }, "geometry": { "type": "Point", "coordinates": [ 32.7467, 26.2003 ] } }
,
{ "type": "Feature", "properties": { "region": 1, "pays": "EGYPTE", "id_wmo": "62405", "id_subnbr": "0", "nom": "LUXOR", "surface": "S", "radiosonde": null, "radiowind": null, "latitude": 25.6708, "longitude": 32.7064, "hp": 99.0, "hha": 89.66 }, "geometry": { "type": "Point", "coordinates": [ 32.7064, 25.6708 ] } }
,
{ "type": "Feature", "properties": { "region": 1, "pays": "EGYPTE", "id_wmo": "62414", "id_subnbr": "0", "nom": "ASSWAN", "surface": "S", "radiosonde": "R", "radiowind": "W", "latitude": 23.9644, "longitude": 32.82, "hp": 194.0, "hha": 201.78 }, "geometry": { "type": "Point", "coordinates": [ 32.82, 23.9644 ] } }
,
{ "type": "Feature", "properties": { "region": 1, "pays": "EGYPTE", "id_wmo": "62417", "id_subnbr": "0", "nom": "SIWA", "surface": "S", "radiosonde": null, "radiowind": null, "latitude": 29.2, "longitude": 25.4833, "hp": -13.26, "hha": -15.0 }, "geometry": { "type": "Point", "coordinates": [ 25.4833, 29.2 ] } }
,
{ "type": "Feature", "properties": { "region": 1, "pays": "EGYPTE", "id_wmo": "62419", "id_subnbr": "0", "nom": "ABU SIMBEL", "surface": "S", "radiosonde": null, "radiowind": null, "latitude": 22.3758, "longitude": 31.6117, "hp": 192.0, "hha": 187.76 }, "geometry": { "type": "Point", "coordinates": [ 31.6117, 22.3758 ] } }
,
{ "type": "Feature", "properties": { "region": 1, "pays": "EGYPTE", "id_wmo": "62420", "id_subnbr": "0", "nom": "BAHARIA", "surface": "S", "radiosonde": null, "radiowind": null, "latitude": 28.3333, "longitude": 28.9, "hp": 129.5, "hha": 127.47 }, "geometry": { "type": "Point", "coordinates": [ 28.9, 28.3333 ] } }
,
{ "type": "Feature", "properties": { "region": 1, "pays": "EGYPTE", "id_wmo": "62423", "id_subnbr": "0", "nom": "FARAFRA", "surface": "S", "radiosonde": "R", "radiowind": "W", "latitude": 27.0583, "longitude": 27.9892, "hp": 92.1, "hha": 82.2 }, "geometry": { "type": "Point", "coordinates": [ 27.9892, 27.0583 ] } }
,
{ "type": "Feature", "properties": { "region": 1, "pays": "EGYPTE", "id_wmo": "62432", "id_subnbr": "0", "nom": "DAKHLA", "surface": "S", "radiosonde": null, "radiowind": null, "latitude": 25.5028, "longitude": 28.9725, "hp": 111.27, "hha": 186.84 }, "geometry": { "type": "Point", "coordinates": [ 28.9725, 25.5028 ] } }
,
{ "type": "Feature", "properties": { "region": 1, "pays": "EGYPTE", "id_wmo": "62435", "id_subnbr": "0", "nom": "KHARGA AGRIMET", "surface": "S", "radiosonde": null, "radiowind": null, "latitude": 25.4644, "longitude": 30.5425, "hp": 72.75, "hha": 58.52 }, "geometry": { "type": "Point", "coordinates": [ 30.5425, 25.4644 ] } }
,
{ "type": "Feature", "properties": { "region": 1, "pays": "EGYPTE", "id_wmo": "62440", "id_subnbr": "0", "nom": "ISMAILIA", "surface": "S", "radiosonde": null, "radiowind": null, "latitude": 30.5917, "longitude": 32.2472, "hp": 12.74, "hha": 12.48 }, "geometry": { "type": "Point", "coordinates": [ 32.2472, 30.5917 ] } }
,
{ "type": "Feature", "properties": { "region": 1, "pays": "EGYPTE", "id_wmo": "62452", "id_subnbr": "0", "nom": "NEKHEL", "surface": "S", "radiosonde": null, "radiowind": null, "latitude": 29.9144, "longitude": 33.7408, "hp": 403.0, "hha": 401.0 }, "geometry": { "type": "Point", "coordinates": [ 33.7408, 29.9144 ] } }
,
{ "type": "Feature", "properties": { "region": 1, "pays": "EGYPTE", "id_wmo": "62455", "id_subnbr": "0", "nom": "RAS SEDR", "surface": "S", "radiosonde": null, "radiowind": null, "latitude": 29.5844, "longitude": 32.7175, "hp": 16.3, "hha": 3.26 }, "geometry": { "type": "Point", "coordinates": [ 32.7175, 29.5844 ] } }
,
{ "type": "Feature", "properties": { "region": 1, "pays": "EGYPTE", "id_wmo": "62458", "id_subnbr": "0", "nom": "ABURDEES", "surface": "S", "radiosonde": null, "radiowind": null, "latitude": 28.9106, "longitude": 33.1956, "hp": 7.69, "hha": 5.19 }, "geometry": { "type": "Point", "coordinates": [ 33.1956, 28.9106 ] } }
,
{ "type": "Feature", "properties": { "region": 1, "pays": "EGYPTE", "id_wmo": "62459", "id_subnbr": "0", "nom": "EL TOR", "surface": "S", "radiosonde": null, "radiowind": null, "latitude": 28.2089, "longitude": 33.6456, "hp": 14.0, "hha": 35.05 }, "geometry": { "type": "Point", "coordinates": [ 33.6456, 28.2089 ] } }
,
{ "type": "Feature", "properties": { "region": 1, "pays": "EGYPTE", "id_wmo": "62463", "id_subnbr": "0", "nom": "HURGUADA", "surface": "S", "radiosonde": null, "radiowind": null, "latitude": 27.1786, "longitude": 33.8008, "hp": 14.1, "hha": 15.84 }, "geometry": { "type": "Point", "coordinates": [ 33.8008, 27.1786 ] } }
,
{ "type": "Feature", "properties": { "region": 1, "pays": "EGYPTE", "id_wmo": "62465", "id_subnbr": "0", "nom": "KOSSEIR", "surface": "S", "radiosonde": null, "radiowind": null, "latitude": 26.1356, "longitude": 34.2583, "hp": 10.8, "hha": 15.4 }, "geometry": { "type": "Point", "coordinates": [ 34.2583, 26.1356 ] } }
,
{ "type": "Feature", "properties": { "region": 1, "pays": "EGYPTE", "id_wmo": "62476", "id_subnbr": "0", "nom": "SHALATIN", "surface": "S", "radiosonde": null, "radiowind": null, "latitude": 23.1308, "longitude": 35.5842, "hp": 21.44, "hha": 19.44 }, "geometry": { "type": "Point", "coordinates": [ 35.5842, 23.1308 ] } }
,
{ "type": "Feature", "properties": { "region": 1, "pays": "GUINEE EQUATORIALE", "id_wmo": "64810", "id_subnbr": "0", "nom": "MALABO", "surface": "S", "radiosonde": null, "radiowind": null, "latitude": 3.75, "longitude": 8.76667, "hp": 56.0, "hha": 50.0 }, "geometry": { "type": "Point", "coordinates": [ 8.76667, 3.75 ] } }
,
{ "type": "Feature", "properties": { "region": 1, "pays": "GUINEE EQUATORIALE", "id_wmo": "64820", "id_subnbr": "0", "nom": "BATA (RIO MUNI)", "surface": "S", "radiosonde": null, "radiowind": null, "latitude": 1.9, "longitude": 9.8, "hp": 8.0, "hha": 2.0 }, "geometry": { "type": "Point", "coordinates": [ 9.8, 1.9 ] } }
,
{ "type": "Feature", "properties": { "region": 1, "pays": "ERYTHREE", "id_wmo": "63021", "id_subnbr": "0", "nom": "ASMARA", "surface": "S", "radiosonde": "R", "radiowind": "W", "latitude": 15.2833, "longitude": 38.9167, "hp": 2325.0, "hha": null }, "geometry": { "type": "Point", "coordinates": [ 38.9167, 15.2833 ] } }
,
{ "type": "Feature", "properties": { "region": 1, "pays": "ERYTHREE", "id_wmo": "63043", "id_subnbr": "0", "nom": "ASSAB", "surface": "S", "radiosonde": null, "radiowind": null, "latitude": 13.0667, "longitude": 42.7167, "hp": 14.0, "hha": null }, "geometry": { "type": "Point", "coordinates": [ 42.7167, 13.0667 ] } }
,
{ "type": "Feature", "properties": { "region": 1, "pays": "ETHIOPIE", "id_wmo": "63330", "id_subnbr": "0", "nom": "MAKALE", "surface": "S", "radiosonde": null, "radiowind": null, "latitude": 13.5, "longitude": 39.4833, "hp": 2070.0, "hha": null }, "geometry": { "type": "Point", "coordinates": [ 39.4833, 13.5 ] } }
,
{ "type": "Feature", "properties": { "region": 1, "pays": "ETHIOPIE", "id_wmo": "63331", "id_subnbr": "0", "nom": "GONDAR", "surface": "S", "radiosonde": null, "radiowind": null, "latitude": 12.55, "longitude": 37.4167, "hp": 1967.0, "hha": null }, "geometry": { "type": "Point", "coordinates": [ 37.4167, 12.55 ] } }
,
{ "type": "Feature", "properties": { "region": 1, "pays": "ETHIOPIE", "id_wmo": "63332", "id_subnbr": "0", "nom": "BAHAR DAR", "surface": "S", "radiosonde": null, "radiowind": null, "latitude": 11.6, "longitude": 37.4167, "hp": 1770.0, "hha": null }, "geometry": { "type": "Point", "coordinates": [ 37.4167, 11.6 ] } }
,
{ "type": "Feature", "properties": { "region": 1, "pays": "ETHIOPIE", "id_wmo": "63333", "id_subnbr": "0", "nom": "COMBOLCHA", "surface": "S", "radiosonde": null, "radiowind": null, "latitude": 11.1167, "longitude": 39.7333, "hp": 1903.0, "hha": null }, "geometry": { "type": "Point", "coordinates": [ 39.7333, 11.1167 ] } }
,
{ "type": "Feature", "properties": { "region": 1, "pays": "ETHIOPIE", "id_wmo": "63334", "id_subnbr": "0", "nom": "DEBREMARCOS", "surface": "S", "radiosonde": null, "radiowind": null, "latitude": 10.3333, "longitude": 37.6667, "hp": 2515.0, "hha": null }, "geometry": { "type": "Point", "coordinates": [ 37.6667, 10.3333 ] } }
,
{ "type": "Feature", "properties": { "region": 1, "pays": "ETHIOPIE", "id_wmo": "63340", "id_subnbr": "0", "nom": "LEKEMTE", "surface": "S", "radiosonde": null, "radiowind": null, "latitude": 9.08333, "longitude": 36.45, "hp": 2080.0, "hha": null }, "geometry": { "type": "Point", "coordinates": [ 36.45, 9.08333 ] } }
,
{ "type": "Feature", "properties": { "region": 1, "pays": "ETHIOPIE", "id_wmo": "63402", "id_subnbr": "0", "nom": "JIMMA", "surface": "S", "radiosonde": null, "radiowind": null, "latitude": 7.66667, "longitude": 36.8333, "hp": 1725.0, "hha": null }, "geometry": { "type": "Point", "coordinates": [ 36.8333, 7.66667 ] } }
,
{ "type": "Feature", "properties": { "region": 1, "pays": "ETHIOPIE", "id_wmo": "63403", "id_subnbr": "0", "nom": "GORE", "surface": "S", "radiosonde": null, "radiowind": null, "latitude": 8.15, "longitude": 35.5333, "hp": 2002.0, "hha": null }, "geometry": { "type": "Point", "coordinates": [ 35.5333, 8.15 ] } }
,
{ "type": "Feature", "properties": { "region": 1, "pays": "ETHIOPIE", "id_wmo": "63450", "id_subnbr": "0", "nom": "ADDIS ABABA-BOLE", "surface": "S", "radiosonde": "R", "radiowind": "W", "latitude": 9.03333, "longitude": 38.75, "hp": 2354.0, "hha": null }, "geometry": { "type": "Point", "coordinates": [ 38.75, 9.03333 ] } }
,
{ "type": "Feature", "properties": { "region": 1, "pays": "ETHIOPIE", "id_wmo": "63453", "id_subnbr": "0", "nom": "METEHARA", "surface": "S", "radiosonde": null, "radiowind": null, "latitude": 8.86667, "longitude": 39.9, "hp": 930.0, "hha": null }, "geometry": { "type": "Point", "coordinates": [ 39.9, 8.86667 ] } }
,
{ "type": "Feature", "properties": { "region": 1, "pays": "ETHIOPIE", "id_wmo": "63460", "id_subnbr": "0", "nom": "AWASSA", "surface": "S", "radiosonde": null, "radiowind": null, "latitude": 7.08333, "longitude": 38.4833, "hp": 1750.0, "hha": null }, "geometry": { "type": "Point", "coordinates": [ 38.4833, 7.08333 ] } }
,
{ "type": "Feature", "properties": { "region": 1, "pays": "ETHIOPIE", "id_wmo": "63471", "id_subnbr": "0", "nom": "DIREDAWA", "surface": "S", "radiosonde": null, "radiowind": null, "latitude": 9.6, "longitude": 41.85, "hp": 1260.0, "hha": null }, "geometry": { "type": "Point", "coordinates": [ 41.85, 9.6 ] } }
,
{ "type": "Feature", "properties": { "region": 1, "pays": "ETHIOPIE", "id_wmo": "63474", "id_subnbr": "0", "nom": "ROBE\/BALE", "surface": "S", "radiosonde": null, "radiowind": null, "latitude": 7.13333, "longitude": 40.0, "hp": 2480.0, "hha": null }, "geometry": { "type": "Point", "coordinates": [ 40.0, 7.13333 ] } }
,
{ "type": "Feature", "properties": { "region": 1, "pays": "ETHIOPIE", "id_wmo": "63478", "id_subnbr": "0", "nom": "GODE", "surface": "S", "radiosonde": null, "radiowind": null, "latitude": 5.9, "longitude": 43.5833, "hp": 295.0, "hha": null }, "geometry": { "type": "Point", "coordinates": [ 43.5833, 5.9 ] } }
,
{ "type": "Feature", "properties": { "region": 1, "pays": "ETHIOPIE", "id_wmo": "63500", "id_subnbr": "0", "nom": "ARBA MINCH", "surface": "S", "radiosonde": null, "radiowind": null, "latitude": 6.08333, "longitude": 37.6333, "hp": 1290.0, "hha": null }, "geometry": { "type": "Point", "coordinates": [ 37.6333, 6.08333 ] } }
,
{ "type": "Feature", "properties": { "region": 1, "pays": "ETHIOPIE", "id_wmo": "63533", "id_subnbr": "0", "nom": "NEGHELLE", "surface": "S", "radiosonde": "R", "radiowind": null, "latitude": 5.33333, "longitude": 39.5667, "hp": 1544.0, "hha": null }, "geometry": { "type": "Point", "coordinates": [ 39.5667, 5.33333 ] } }
,
{ "type": "Feature", "properties": { "region": 1, "pays": "GABON", "id_wmo": "64500", "id_subnbr": "0", "nom": "LIBREVILLE", "surface": "S", "radiosonde": null, "radiowind": null, "latitude": 0.45, "longitude": 9.41667, "hp": 15.0, "hha": 12.0 }, "geometry": { "type": "Point", "coordinates": [ 9.41667, 0.45 ] } }
,
{ "type": "Feature", "properties": { "region": 1, "pays": "GABON", "id_wmo": "64501", "id_subnbr": "0", "nom": "PORT-GENTIL", "surface": "S", "radiosonde": null, "radiowind": null, "latitude": -0.7, "longitude": 8.75, "hp": 4.0, "hha": 4.0 }, "geometry": { "type": "Point", "coordinates": [ 8.75, -0.7 ] } }
,
{ "type": "Feature", "properties": { "region": 1, "pays": "GABON", "id_wmo": "64507", "id_subnbr": "0", "nom": "TCHIBANGA", "surface": "S", "radiosonde": null, "radiowind": null, "latitude": -2.85, "longitude": 11.0167, "hp": 79.0, "hha": 83.0 }, "geometry": { "type": "Point", "coordinates": [ 11.0167, -2.85 ] } }
,
{ "type": "Feature", "properties": { "region": 1, "pays": "GABON", "id_wmo": "64510", "id_subnbr": "0", "nom": "BITAM", "surface": "S", "radiosonde": null, "radiowind": null, "latitude": 2.08333, "longitude": 11.4833, "hp": 599.0, "hha": 600.0 }, "geometry": { "type": "Point", "coordinates": [ 11.4833, 2.08333 ] } }
,
{ "type": "Feature", "properties": { "region": 1, "pays": "GABON", "id_wmo": "64512", "id_subnbr": "0", "nom": "OYEM", "surface": "S", "radiosonde": null, "radiowind": null, "latitude": 1.58333, "longitude": 11.5667, "hp": null, "hha": 590.0 }, "geometry": { "type": "Point", "coordinates": [ 11.5667, 1.58333 ] } }
,
{ "type": "Feature", "properties": { "region": 1, "pays": "GABON", "id_wmo": "64551", "id_subnbr": "0", "nom": "LAMBARENE", "surface": "S", "radiosonde": null, "radiowind": null, "latitude": -0.716667, "longitude": 10.2333, "hp": 26.0, "hha": 27.0 }, "geometry": { "type": "Point", "coordinates": [ 10.2333, -0.716667 ] } }
,
{ "type": "Feature", "properties": { "region": 1, "pays": "GABON", "id_wmo": "64556", "id_subnbr": "0", "nom": "MAKOKOU", "surface": "S", "radiosonde": null, "radiowind": null, "latitude": 0.566667, "longitude": 12.8667, "hp": 515.0, "hha": 513.0 }, "geometry": { "type": "Point", "coordinates": [ 12.8667, 0.566667 ] } }
,
{ "type": "Feature", "properties": { "region": 1, "pays": "GABON", "id_wmo": "64570", "id_subnbr": "0", "nom": "MVENGUE", "surface": "S", "radiosonde": null, "radiowind": null, "latitude": -1.65, "longitude": 13.4333, "hp": null, "hha": 444.0 }, "geometry": { "type": "Point", "coordinates": [ 13.4333, -1.65 ] } }
,
{ "type": "Feature", "properties": { "region": 1, "pays": "GAMBIE", "id_wmo": "61701", "id_subnbr": "0", "nom": "BANJUL\/YUNDUM", "surface": "S", "radiosonde": null, "radiowind": null, "latitude": 13.2, "longitude": -16.6333, "hp": 33.0, "hha": 36.0 }, "geometry": { "type": "Point", "coordinates": [ -16.6333, 13.2 ] } }
,
{ "type": "Feature", "properties": { "region": 1, "pays": "GAMBIE", "id_wmo": "61731", "id_subnbr": "0", "nom": "BASSE", "surface": "S", "radiosonde": null, "radiowind": null, "latitude": 13.3167, "longitude": -14.2167, "hp": 4.0, "hha": 4.0 }, "geometry": { "type": "Point", "coordinates": [ -14.2167, 13.3167 ] } }
,
{ "type": "Feature", "properties": { "region": 1, "pays": "GHANA", "id_wmo": "65401", "id_subnbr": "0", "nom": "NAVRONGO", "surface": "S", "radiosonde": null, "radiowind": null, "latitude": 10.9, "longitude": -1.1, "hp": null, "hha": 213.4 }, "geometry": { "type": "Point", "coordinates": [ -1.1, 10.9 ] } }
,
{ "type": "Feature", "properties": { "region": 1, "pays": "GHANA", "id_wmo": "65404", "id_subnbr": "0", "nom": "WA", "surface": "S", "radiosonde": null, "radiowind": null, "latitude": 10.05, "longitude": -2.5, "hp": null, "hha": 322.7 }, "geometry": { "type": "Point", "coordinates": [ -2.5, 10.05 ] } }
,
{ "type": "Feature", "properties": { "region": 1, "pays": "GHANA", "id_wmo": "65416", "id_subnbr": "0", "nom": "BOLE", "surface": "S", "radiosonde": null, "radiowind": null, "latitude": 9.03333, "longitude": -2.48333, "hp": null, "hha": 299.5 }, "geometry": { "type": "Point", "coordinates": [ -2.48333, 9.03333 ] } }
,
{ "type": "Feature", "properties": { "region": 1, "pays": "GHANA", "id_wmo": "65418", "id_subnbr": "0", "nom": "TAMALE", "surface": "S", "radiosonde": "R", "radiowind": "W", "latitude": 9.55, "longitude": -0.85, "hp": null, "hha": 168.8 }, "geometry": { "type": "Point", "coordinates": [ -0.85, 9.55 ] } }
,
{ "type": "Feature", "properties": { "region": 1, "pays": "GHANA", "id_wmo": "65432", "id_subnbr": "0", "nom": "WENCHI", "surface": "S", "radiosonde": null, "radiowind": null, "latitude": 7.75, "longitude": -2.1, "hp": null, "hha": 338.9 }, "geometry": { "type": "Point", "coordinates": [ -2.1, 7.75 ] } }
,
{ "type": "Feature", "properties": { "region": 1, "pays": "GHANA", "id_wmo": "65437", "id_subnbr": "0", "nom": "KETE-KRACHI", "surface": "S", "radiosonde": null, "radiowind": null, "latitude": 7.81667, "longitude": -0.0333333, "hp": null, "hha": 122.0 }, "geometry": { "type": "Point", "coordinates": [ -0.0333333, 7.81667 ] } }
,
{ "type": "Feature", "properties": { "region": 1, "pays": "GHANA", "id_wmo": "65442", "id_subnbr": "0", "nom": "KUMASI", "surface": "S", "radiosonde": null, "radiowind": null, "latitude": 6.71667, "longitude": -1.6, "hp": null, "hha": 286.3 }, "geometry": { "type": "Point", "coordinates": [ -1.6, 6.71667 ] } }
,
{ "type": "Feature", "properties": { "region": 1, "pays": "GHANA", "id_wmo": "65445", "id_subnbr": "0", "nom": "SEFWI BEKWAI", "surface": "S", "radiosonde": null, "radiowind": null, "latitude": 6.2, "longitude": -2.33333, "hp": null, "hha": 170.8 }, "geometry": { "type": "Point", "coordinates": [ -2.33333, 6.2 ] } }
,
{ "type": "Feature", "properties": { "region": 1, "pays": "GHANA", "id_wmo": "65453", "id_subnbr": "0", "nom": "HO", "surface": "S", "radiosonde": null, "radiowind": null, "latitude": 6.6, "longitude": 0.466667, "hp": null, "hha": 157.6 }, "geometry": { "type": "Point", "coordinates": [ 0.466667, 6.6 ] } }
,
{ "type": "Feature", "properties": { "region": 1, "pays": "GHANA", "id_wmo": "65457", "id_subnbr": "0", "nom": "AKIM ODA", "surface": "S", "radiosonde": null, "radiowind": null, "latitude": 5.93333, "longitude": -0.983333, "hp": null, "hha": 139.4 }, "geometry": { "type": "Point", "coordinates": [ -0.983333, 5.93333 ] } }
,
{ "type": "Feature", "properties": { "region": 1, "pays": "GHANA", "id_wmo": "65467", "id_subnbr": "0", "nom": "TAKORADI", "surface": "S", "radiosonde": null, "radiowind": null, "latitude": 4.88333, "longitude": -1.76667, "hp": 4.6, "hha": null }, "geometry": { "type": "Point", "coordinates": [ -1.76667, 4.88333 ] } }
,
{ "type": "Feature", "properties": { "region": 1, "pays": "GHANA", "id_wmo": "65472", "id_subnbr": "0", "nom": "ACCRA", "surface": "S", "radiosonde": "R", "radiowind": "W", "latitude": 5.6, "longitude": -0.166667, "hp": 67.7, "hha": null }, "geometry": { "type": "Point", "coordinates": [ -0.166667, 5.6 ] } }
,
{ "type": "Feature", "properties": { "region": 1, "pays": "GHANA", "id_wmo": "65475", "id_subnbr": "0", "nom": "ADA", "surface": "S", "radiosonde": null, "radiowind": null, "latitude": 5.78333, "longitude": 0.633333, "hp": null, "hha": 5.2 }, "geometry": { "type": "Point", "coordinates": [ 0.633333, 5.78333 ] } }
,
{ "type": "Feature", "properties": { "region": 1, "pays": "GUINEE", "id_wmo": "61802", "id_subnbr": "0", "nom": "KOUNDARA", "surface": "S", "radiosonde": null, "radiowind": null, "latitude": 12.5667, "longitude": -13.5167, "hp": null, "hha": 90.0 }, "geometry": { "type": "Point", "coordinates": [ -13.5167, 12.5667 ] } }
,
{ "type": "Feature", "properties": { "region": 1, "pays": "GUINEE", "id_wmo": "61809", "id_subnbr": "0", "nom": "LABE", "surface": "S", "radiosonde": null, "radiowind": null, "latitude": 11.3167, "longitude": -12.3, "hp": null, "hha": 1025.36 }, "geometry": { "type": "Point", "coordinates": [ -12.3, 11.3167 ] } }
,
{ "type": "Feature", "properties": { "region": 1, "pays": "GUINEE", "id_wmo": "61811", "id_subnbr": "0", "nom": "SIGUIRI", "surface": "S", "radiosonde": null, "radiowind": null, "latitude": 11.4333, "longitude": -9.16667, "hp": null, "hha": 363.5 }, "geometry": { "type": "Point", "coordinates": [ -9.16667, 11.4333 ] } }
,
{ "type": "Feature", "properties": { "region": 1, "pays": "GUINEE", "id_wmo": "61816", "id_subnbr": "0", "nom": "BOKE", "surface": "S", "radiosonde": null, "radiowind": null, "latitude": 10.9333, "longitude": -14.8167, "hp": null, "hha": 69.4 }, "geometry": { "type": "Point", "coordinates": [ -14.8167, 10.9333 ] } }
,
{ "type": "Feature", "properties": { "region": 1, "pays": "GUINEE", "id_wmo": "61818", "id_subnbr": "0", "nom": "KINDIA", "surface": "S", "radiosonde": null, "radiowind": null, "latitude": 10.05, "longitude": -12.8667, "hp": null, "hha": 458.34 }, "geometry": { "type": "Point", "coordinates": [ -12.8667, 10.05 ] } }
,
{ "type": "Feature", "properties": { "region": 1, "pays": "GUINEE", "id_wmo": "61820", "id_subnbr": "0", "nom": "MAMOU", "surface": "S", "radiosonde": null, "radiowind": null, "latitude": 10.3667, "longitude": -12.0833, "hp": null, "hha": 785.0 }, "geometry": { "type": "Point", "coordinates": [ -12.0833, 10.3667 ] } }
,
{ "type": "Feature", "properties": { "region": 1, "pays": "GUINEE", "id_wmo": "61829", "id_subnbr": "0", "nom": "KANKAN", "surface": "S", "radiosonde": null, "radiowind": null, "latitude": 10.3833, "longitude": -9.3, "hp": null, "hha": 376.31 }, "geometry": { "type": "Point", "coordinates": [ -9.3, 10.3833 ] } }
,
{ "type": "Feature", "properties": { "region": 1, "pays": "GUINEE", "id_wmo": "61831", "id_subnbr": "0", "nom": "CONAKRY", "surface": null, "radiosonde": "R", "radiowind": "W", "latitude": 9.56667, "longitude": -13.6167, "hp": null, "hha": 49.0 }, "geometry": { "type": "Point", "coordinates": [ -13.6167, 9.56667 ] } }
,
{ "type": "Feature", "properties": { "region": 1, "pays": "GUINEE", "id_wmo": "61832", "id_subnbr": "0", "nom": "CONAKRY\/GBESSIA", "surface": "S", "radiosonde": null, "radiowind": null, "latitude": 9.56667, "longitude": -13.6167, "hp": null, "hha": 25.79 }, "geometry": { "type": "Point", "coordinates": [ -13.6167, 9.56667 ] } }
,
{ "type": "Feature", "properties": { "region": 1, "pays": "GUINEE", "id_wmo": "61833", "id_subnbr": "0", "nom": "FARANAH\/BADALA", "surface": "S", "radiosonde": null, "radiowind": null, "latitude": 10.0333, "longitude": -10.75, "hp": null, "hha": 463.0 }, "geometry": { "type": "Point", "coordinates": [ -10.75, 10.0333 ] } }
,
{ "type": "Feature", "properties": { "region": 1, "pays": "GUINEE", "id_wmo": "61834", "id_subnbr": "0", "nom": "KISSIDOUGOU", "surface": "S", "radiosonde": null, "radiowind": null, "latitude": 9.41667, "longitude": -10.0833, "hp": null, "hha": 412.0 }, "geometry": { "type": "Point", "coordinates": [ -10.0833, 9.41667 ] } }
,
{ "type": "Feature", "properties": { "region": 1, "pays": "GUINEE", "id_wmo": "61847", "id_subnbr": "0", "nom": "MACENTA", "surface": "S", "radiosonde": null, "radiowind": null, "latitude": 8.53333, "longitude": -9.5, "hp": null, "hha": 559.0 }, "geometry": { "type": "Point", "coordinates": [ -9.5, 8.53333 ] } }
,
{ "type": "Feature", "properties": { "region": 1, "pays": "GUINEE", "id_wmo": "61849", "id_subnbr": "0", "nom": "N'ZEREKORE", "surface": "S", "radiosonde": null, "radiowind": null, "latitude": 7.75, "longitude": -8.28333, "hp": null, "hha": 475.0 }, "geometry": { "type": "Point", "coordinates": [ -8.28333, 7.75 ] } }
,
{ "type": "Feature", "properties": { "region": 1, "pays": "GUINEE-BISSAU", "id_wmo": "61766", "id_subnbr": "0", "nom": "BISSAU (AEROPORTO INT. OSVALDO VIEIRA)", "surface": "S", "radiosonde": null, "radiowind": null, "latitude": 11.8833, "longitude": -15.65, "hp": 36.0, "hha": 39.0 }, "geometry": { "type": "Point", "coordinates": [ -15.65, 11.8833 ] } }
,
{ "type": "Feature", "properties": { "region": 1, "pays": "GUINEE-BISSAU", "id_wmo": "61769", "id_subnbr": "0", "nom": "BOLAMA", "surface": "S", "radiosonde": null, "radiowind": null, "latitude": 11.5833, "longitude": -15.4833, "hp": 20.0, "hha": 18.0 }, "geometry": { "type": "Point", "coordinates": [ -15.4833, 11.5833 ] } }
,
{ "type": "Feature", "properties": { "region": 1, "pays": "GUINEE-BISSAU", "id_wmo": "61781", "id_subnbr": "0", "nom": "BAFATA", "surface": "S", "radiosonde": null, "radiowind": null, "latitude": 12.1667, "longitude": -14.6667, "hp": 43.0, "hha": 42.0 }, "geometry": { "type": "Point", "coordinates": [ -14.6667, 12.1667 ] } }
,
{ "type": "Feature", "properties": { "region": 1, "pays": "KENYA", "id_wmo": "63612", "id_subnbr": "0", "nom": "LODWAR", "surface": "S", "radiosonde": null, "radiowind": null, "latitude": 3.11861, "longitude": 35.64, "hp": null, "hha": 505.97 }, "geometry": { "type": "Point", "coordinates": [ 35.64, 3.11861 ] } }
,
{ "type": "Feature", "properties": { "region": 1, "pays": "KENYA", "id_wmo": "63619", "id_subnbr": "0", "nom": "MOYALE", "surface": "S", "radiosonde": null, "radiowind": null, "latitude": 3.59861, "longitude": 39.0503, "hp": null, "hha": 1112.52 }, "geometry": { "type": "Point", "coordinates": [ 39.0503, 3.59861 ] } }
,
{ "type": "Feature", "properties": { "region": 1, "pays": "KENYA", "id_wmo": "63624", "id_subnbr": "0", "nom": "MANDERA", "surface": "S", "radiosonde": null, "radiowind": null, "latitude": 3.93861, "longitude": 41.8544, "hp": null, "hha": 330.71 }, "geometry": { "type": "Point", "coordinates": [ 41.8544, 3.93861 ] } }
,
{ "type": "Feature", "properties": { "region": 1, "pays": "KENYA", "id_wmo": "63641", "id_subnbr": "0", "nom": "MARSABIT", "surface": "S", "radiosonde": null, "radiowind": null, "latitude": 2.33389, "longitude": 37.9856, "hp": null, "hha": 1345.08 }, "geometry": { "type": "Point", "coordinates": [ 37.9856, 2.33389 ] } }
,
{ "type": "Feature", "properties": { "region": 1, "pays": "KENYA", "id_wmo": "63661", "id_subnbr": "0", "nom": "KITALE", "surface": "S", "radiosonde": null, "radiowind": null, "latitude": 1.01694, "longitude": 35.0117, "hp": null, "hha": 560.83 }, "geometry": { "type": "Point", "coordinates": [ 35.0117, 1.01694 ] } }
,
{ "type": "Feature", "properties": { "region": 1, "pays": "KENYA", "id_wmo": "63671", "id_subnbr": "0", "nom": "WAJIR", "surface": "S", "radiosonde": null, "radiowind": null, "latitude": 1.74, "longitude": 40.0867, "hp": null, "hha": 243.84 }, "geometry": { "type": "Point", "coordinates": [ 40.0867, 1.74 ] } }
,
{ "type": "Feature", "properties": { "region": 1, "pays": "KENYA", "id_wmo": "63688", "id_subnbr": "0", "nom": "ELDORET INTERNATIONAL AIRPORT", "surface": "S", "radiosonde": null, "radiowind": null, "latitude": 0.405, "longitude": 35.2236, "hp": null, "hha": 1940.97 }, "geometry": { "type": "Point", "coordinates": [ 35.2236, 0.405 ] } }
,
{ "type": "Feature", "properties": { "region": 1, "pays": "KENYA", "id_wmo": "63695", "id_subnbr": "0", "nom": "MERU", "surface": "S", "radiosonde": null, "radiowind": null, "latitude": 0.0516667, "longitude": 37.6508, "hp": null, "hha": 1524.0 }, "geometry": { "type": "Point", "coordinates": [ 37.6508, 0.0516667 ] } }
,
{ "type": "Feature", "properties": { "region": 1, "pays": "KENYA", "id_wmo": "63708", "id_subnbr": "0", "nom": "KISUMU", "surface": "S", "radiosonde": null, "radiowind": null, "latitude": -0.0861111, "longitude": 34.7289, "hp": null, "hha": 1148.79 }, "geometry": { "type": "Point", "coordinates": [ 34.7289, -0.0861111 ] } }
,
{ "type": "Feature", "properties": { "region": 1, "pays": "KENYA", "id_wmo": "63714", "id_subnbr": "0", "nom": "NAKURU", "surface": "S", "radiosonde": null, "radiowind": null, "latitude": -0.272778, "longitude": 36.1025, "hp": null, "hha": 1901.04 }, "geometry": { "type": "Point", "coordinates": [ 36.1025, -0.272778 ] } }
,
{ "type": "Feature", "properties": { "region": 1, "pays": "KENYA", "id_wmo": "63723", "id_subnbr": "0", "nom": "GARISSA", "surface": "S", "radiosonde": null, "radiowind": null, "latitude": -0.476667, "longitude": 39.6486, "hp": null, "hha": 128.02 }, "geometry": { "type": "Point", "coordinates": [ 39.6486, -0.476667 ] } }
,
{ "type": "Feature", "properties": { "region": 1, "pays": "KENYA", "id_wmo": "63740", "id_subnbr": "0", "nom": "JOMO KENYATTA NTERNATIONAL AIRPORT", "surface": "S", "radiosonde": null, "radiowind": null, "latitude": -1.3275, "longitude": 36.9164, "hp": null, "hha": 1624.28 }, "geometry": { "type": "Point", "coordinates": [ 36.9164, -1.3275 ] } }
,
{ "type": "Feature", "properties": { "region": 1, "pays": "KENYA", "id_wmo": "63741", "id_subnbr": "0", "nom": "DAGORETTI CORNER", "surface": "S", "radiosonde": "R", "radiowind": "W", "latitude": -1.30361, "longitude": 36.7597, "hp": null, "hha": 1798.32 }, "geometry": { "type": "Point", "coordinates": [ 36.7597, -1.30361 ] } }
,
{ "type": "Feature", "properties": { "region": 1, "pays": "KENYA", "id_wmo": "63772", "id_subnbr": "0", "nom": "LAMU", "surface": "S", "radiosonde": null, "radiowind": null, "latitude": -2.20444, "longitude": 40.8369, "hp": null, "hha": 1.83 }, "geometry": { "type": "Point", "coordinates": [ 40.8369, -2.20444 ] } }
,
{ "type": "Feature", "properties": { "region": 1, "pays": "KENYA", "id_wmo": "63793", "id_subnbr": "0", "nom": "VOI", "surface": "S", "radiosonde": null, "radiowind": null, "latitude": -3.39806, "longitude": 38.5581, "hp": null, "hha": 559.92 }, "geometry": { "type": "Point", "coordinates": [ 38.5581, -3.39806 ] } }
,
{ "type": "Feature", "properties": { "region": 1, "pays": "KENYA", "id_wmo": "63799", "id_subnbr": "0", "nom": "MALINDI", "surface": "S", "radiosonde": null, "radiowind": null, "latitude": -3.23083, "longitude": 38.5581, "hp": null, "hha": 19.81 }, "geometry": { "type": "Point", "coordinates": [ 38.5581, -3.23083 ] } }
,
{ "type": "Feature", "properties": { "region": 1, "pays": "KENYA", "id_wmo": "63820", "id_subnbr": "0", "nom": "MOMBASA INTERNATIONAL AIRPORT", "surface": "S", "radiosonde": null, "radiowind": null, "latitude": -4.015, "longitude": 39.6064, "hp": null, "hha": 5.49 }, "geometry": { "type": "Point", "coordinates": [ 39.6064, -4.015 ] } }
,
{ "type": "Feature", "properties": { "region": 1, "pays": "LESOTHO", "id_wmo": "68452", "id_subnbr": "0", "nom": "MOKHOTLONG", "surface": "S", "radiosonde": null, "radiowind": null, "latitude": -29.2667, "longitude": 29.1333, "hp": 2195.0, "hha": 2200.0 }, "geometry": { "type": "Point", "coordinates": [ 29.1333, -29.2667 ] } }
,
{ "type": "Feature", "properties": { "region": 1, "pays": "LESOTHO", "id_wmo": "68454", "id_subnbr": "0", "nom": "MASERU-MIA", "surface": "S", "radiosonde": null, "radiowind": null, "latitude": -29.45, "longitude": 27.55, "hp": 1628.0, "hha": 1631.0 }, "geometry": { "type": "Point", "coordinates": [ 27.55, -29.45 ] } }
,
{ "type": "Feature", "properties": { "region": 1, "pays": "LESOTHO", "id_wmo": "68456", "id_subnbr": "0", "nom": "QACHA'S NEK", "surface": "S", "radiosonde": null, "radiowind": null, "latitude": -30.0667, "longitude": 28.7, "hp": 1950.0, "hha": 1970.0 }, "geometry": { "type": "Point", "coordinates": [ 28.7, -30.0667 ] } }
,
{ "type": "Feature", "properties": { "region": 1, "pays": "LIBERIA", "id_wmo": "65660", "id_subnbr": "0", "nom": "ROBERTS FIELD", "surface": "S", "radiosonde": null, "radiowind": null, "latitude": 6.25, "longitude": -10.35, "hp": 18.0, "hha": 8.0 }, "geometry": { "type": "Point", "coordinates": [ -10.35, 6.25 ] } }
,
{ "type": "Feature", "properties": { "region": 1, "pays": "LIBYE", "id_wmo": "62002", "id_subnbr": "0", "nom": "NALUT", "surface": "S", "radiosonde": null, "radiowind": null, "latitude": 31.8667, "longitude": 10.9833, "hp": 621.0, "hha": 620.0 }, "geometry": { "type": "Point", "coordinates": [ 10.9833, 31.8667 ] } }
,
{ "type": "Feature", "properties": { "region": 1, "pays": "LIBYE", "id_wmo": "62007", "id_subnbr": "0", "nom": "ZUARA", "surface": "S", "radiosonde": null, "radiowind": null, "latitude": 32.8833, "longitude": 12.0833, "hp": 3.0, "hha": 3.0 }, "geometry": { "type": "Point", "coordinates": [ 12.0833, 32.8833 ] } }
,
{ "type": "Feature", "properties": { "region": 1, "pays": "LIBYE", "id_wmo": "62008", "id_subnbr": "0", "nom": "YEFREN", "surface": "S", "radiosonde": null, "radiowind": null, "latitude": 32.0833, "longitude": 12.55, "hp": 691.0, "hha": 691.0 }, "geometry": { "type": "Point", "coordinates": [ 12.55, 32.0833 ] } }
,
{ "type": "Feature", "properties": { "region": 1, "pays": "LIBYE", "id_wmo": "62010", "id_subnbr": "0", "nom": "TRIPOLI INTERNATIONAL AIRPORT", "surface": "S", "radiosonde": null, "radiowind": null, "latitude": 32.7, "longitude": 13.0833, "hp": null, "hha": 63.0 }, "geometry": { "type": "Point", "coordinates": [ 13.0833, 32.7 ] } }
,
{ "type": "Feature", "properties": { "region": 1, "pays": "LIBYE", "id_wmo": "62010", "id_subnbr": "1", "nom": "SWANI", "surface": null, "radiosonde": "R", "radiowind": "W", "latitude": 32.7406, "longitude": 13.0819, "hp": null, "hha": 64.0 }, "geometry": { "type": "Point", "coordinates": [ 13.0819, 32.7406 ] } }
,
{ "type": "Feature", "properties": { "region": 1, "pays": "LIBYE", "id_wmo": "62012", "id_subnbr": "0", "nom": "EL KHOMS", "surface": "S", "radiosonde": null, "radiowind": null, "latitude": 32.6333, "longitude": 14.3, "hp": 22.0, "hha": 21.0 }, "geometry": { "type": "Point", "coordinates": [ 14.3, 32.6333 ] } }
,
{ "type": "Feature", "properties": { "region": 1, "pays": "LIBYE", "id_wmo": "62014", "id_subnbr": "0", "nom": "BENWLID", "surface": "S", "radiosonde": null, "radiowind": null, "latitude": 31.7333, "longitude": 14.0167, "hp": 259.0, "hha": null }, "geometry": { "type": "Point", "coordinates": [ 14.0167, 31.7333 ] } }
,
{ "type": "Feature", "properties": { "region": 1, "pays": "LIBYE", "id_wmo": "62016", "id_subnbr": "0", "nom": "MISURATA", "surface": "S", "radiosonde": null, "radiowind": null, "latitude": 32.4167, "longitude": 15.05, "hp": 32.0, "hha": 32.0 }, "geometry": { "type": "Point", "coordinates": [ 15.05, 32.4167 ] } }
,
{ "type": "Feature", "properties": { "region": 1, "pays": "LIBYE", "id_wmo": "62018", "id_subnbr": "0", "nom": "ABU NJAYM", "surface": "S", "radiosonde": null, "radiowind": null, "latitude": 30.5667, "longitude": 15.7167, "hp": 90.0, "hha": null }, "geometry": { "type": "Point", "coordinates": [ 15.7167, 30.5667 ] } }
,
{ "type": "Feature", "properties": { "region": 1, "pays": "LIBYE", "id_wmo": "62019", "id_subnbr": "0", "nom": "SIRTE", "surface": "S", "radiosonde": null, "radiowind": null, "latitude": 31.2, "longitude": 16.5833, "hp": 14.0, "hha": 13.0 },